City,Cloudiness,Country,Date,Humidity,Lat,Lng,Max Temp,Wind Speed
Vaini,20,TO,1586731535,69,-21.2,-175.2,80.6,9.17
Khatanga,48,RU,1586731535,95,71.97,102.5,6.64,9.89
Port Alfred,12,ZA,1586731535,82,-33.59,26.89,60.01,3.0
Albany,75,US,1586731236,25,42.6,-73.97,62.6,16.11
Talcahuano,3,CL,1586731536,48,-36.72,-73.12,60.8,11.41
Mar del Plata,90,AR,1586731362,82,-38.0,-57.56,64.4,14.99
San Jose de Buan,10,PH,1586731536,62,12.05,125.03,82.69,2.77
New Norfolk,75,AU,1586731536,93,-42.78,147.06,55.99,1.12
Rikitea,45,PF,1586731536,78,-23.12,-134.97,77.95,17.87
Hermanus,5,ZA,1586731536,93,-34.42,19.23,55.99,3.62
Cape Town,0,ZA,1586731348,82,-33.93,18.42,55.99,3.36
Maniitsoq,100,GL,1586731537,95,65.42,-52.9,32.43,30.2
Stornoway,75,GB,1586731537,60,58.21,-6.39,41.0,18.34
Bredasdorp,2,ZA,1586731537,76,-34.53,20.04,53.6,58.61
Bengkulu,93,ID,1586731537,80,-3.8,102.27,78.42,3.42
Busselton,67,AU,1586731498,71,-33.65,115.33,62.01,5.99
George Town,20,MY,1586731244,94,5.41,100.34,80.6,2.24
Bluff,78,NZ,1586731505,81,-46.6,168.33,45.0,14.0
Hong Kong,44,HK,1586731269,36,22.29,114.16,62.6,11.41
Nouadhibou,44,MR,1586731538,70,20.93,-17.03,67.77,22.12
Touros,74,BR,1586731538,83,-5.2,-35.46,80.6,6.93
Hobart,75,AU,1586731538,93,-42.88,147.33,55.99,1.12
Srednekolymsk,90,RU,1586731538,93,67.45,153.68,16.41,8.37
Dikson,100,RU,1586731538,96,73.51,80.55,13.23,17.31
Mataura,73,NZ,1586731538,81,-46.19,168.86,45.0,14.0
Kapaa,1,US,1586731538,61,22.08,-159.32,78.8,9.17
Silver City,1,US,1586731538,36,32.77,-108.28,63.0,25.28
Bambous Virieux,75,MU,1586731539,83,-20.34,57.76,78.01,13.87
São Lourenço do Oeste,0,BR,1586731540,53,-26.36,-52.85,58.3,2.77
Sioux Lookout,40,CA,1586731540,82,50.1,-91.92,32.0,9.17
Lompoc,90,US,1586731540,72,34.64,-120.46,62.01,13.87
Nikolskoye,90,RU,1586731540,87,59.7,30.79,42.8,11.18
Severo-Kuril'sk,81,RU,1586731540,93,50.68,156.12,30.81,9.08
Aykhal,90,RU,1586731540,89,66.0,111.5,32.0,6.71
Isangel,20,VU,1586731540,78,-19.55,169.27,82.4,4.7
San Felipe,21,VE,1586731542,74,10.34,-68.74,74.16,4.88
San Pedro de Macorís,40,DO,1586731542,70,18.46,-69.3,84.2,9.17
Fortuna,1,US,1586731542,71,40.6,-124.16,63.0,16.11
Dhidhdhoo,91,MV,1586731542,69,6.88,73.1,85.03,6.93
Gaya,0,IN,1586731268,73,24.78,85.0,75.2,4.07
Cornăţelu,0,RO,1586731542,45,44.75,25.67,52.0,4.7
Hasaki,75,JP,1586731542,100,35.73,140.83,50.0,19.46
Pisco,1,PE,1586731542,30,-13.7,-76.22,78.01,23.04
Lavrentiya,100,RU,1586731542,97,65.58,-171.0,29.8,4.56
Tuatapere,49,NZ,1586731542,81,-46.13,167.68,45.0,14.0
Qaanaaq,93,GL,1586731543,77,77.48,-69.36,14.95,3.8
Hinton,100,CA,1586731543,64,53.4,-117.59,28.65,8.88
Constitución,9,CL,1586731543,70,-35.33,-72.42,51.93,8.48
Bilma,0,NE,1586731543,15,18.69,12.92,80.22,7.45
Ushuaia,90,AR,1586731326,87,-54.8,-68.3,42.8,21.92
Mahébourg,75,MU,1586731543,83,-20.41,57.7,78.01,13.87
Níjar,75,ES,1586731543,93,36.97,-2.21,59.0,5.82
Fasa,75,IR,1586731544,100,28.94,53.65,53.6,3.29
Fernie,75,CA,1586731326,54,49.5,-115.07,39.2,3.36
Puerto Ayora,75,EC,1586731544,88,-0.74,-90.35,80.6,5.82
Avarua,97,CK,1586731544,88,-21.21,-159.78,80.6,3.36
Tual,92,ID,1586731544,71,-5.67,132.75,84.69,5.93
Capaci,47,IT,1586731544,77,38.17,13.24,64.0,6.08
Yellowknife,5,CA,1586731544,44,62.46,-114.35,21.99,5.82
Hilo,1,US,1586731544,65,19.73,-155.09,82.4,11.41
Bubaque,37,GW,1586731545,73,11.28,-15.83,79.11,9.98
Saint Paul Harbor,90,US,1586731545,81,57.79,-152.41,44.6,5.82
Ilulissat,100,GL,1586731545,80,69.22,-51.1,35.6,8.05
Lebu,0,CL,1586731545,71,-37.62,-73.65,52.05,12.37
Palmer,75,US,1586731399,33,42.16,-72.33,57.99,16.11
Redlands,90,US,1586731471,72,34.06,-117.18,75.2,3.36
Castro,22,BR,1586731545,68,-24.79,-50.01,57.7,6.04
Beira,20,MZ,1586731545,94,-19.84,34.84,69.8,5.82
Havøysund,75,NO,1586731545,86,71.0,24.66,30.2,14.99
Atuona,6,PF,1586731546,68,-9.8,-139.03,82.27,3.76
Kalyves,96,GR,1586731546,93,35.45,24.17,62.01,2.95
The Valley,20,AI,1586731546,66,18.22,-63.06,84.2,11.41
Jamestown,90,US,1586731546,38,42.1,-79.24,66.2,6.93
Pombas,40,CV,1586731546,73,17.15,-25.02,73.4,27.51
Chambas,1,CU,1586731546,66,22.19,-78.91,84.2,16.11
Prabumulih,99,ID,1586731546,96,-3.45,104.25,75.24,1.01
Kemisē,63,ET,1586731546,49,10.72,39.87,69.87,3.0
Barrow,90,US,1586731547,85,71.29,-156.79,24.8,4.7
Alta Floresta,92,BR,1586731547,89,-9.88,-56.09,72.84,1.14
Chokurdakh,52,RU,1586731547,91,70.63,147.92,-1.59,7.63
Flinders,100,AU,1586731547,67,-34.58,150.86,64.0,9.17
Nelson Bay,69,AU,1586731508,87,-32.72,152.15,61.0,8.05
Saint George,1,US,1586731429,32,37.1,-113.58,68.0,20.8
Presidencia Roque Sáenz Peña,0,AR,1586731547,54,-26.79,-60.44,66.6,5.93
Akureyri,81,IS,1586731548,60,65.68,-18.09,42.8,28.86
Emba,37,KZ,1586731548,71,48.83,58.14,37.65,14.05
Saskylakh,99,RU,1586731548,92,71.92,114.08,3.61,18.1
Gamba,78,GA,1586731271,82,-2.65,10.0,78.19,4.0
Cururupu,100,BR,1586731364,88,-1.83,-44.87,78.15,4.03
Thompson,90,CA,1586731512,56,55.74,-97.86,12.2,6.93
Souillac,75,MU,1586731548,83,-20.52,57.52,78.01,13.87
Leningradskiy,89,RU,1586731548,86,69.38,178.42,21.27,2.77
Sydney,88,AU,1586731543,71,-33.87,151.21,64.0,6.93
Tuktoyaktuk,20,CA,1586731549,79,69.45,-133.04,21.2,4.7
Bethel,20,US,1586731533,62,41.37,-73.41,61.0,6.93
Ust-Tsilma,0,RU,1586731549,95,65.44,52.15,16.68,2.04
Auki,91,SB,1586731549,67,-8.77,160.7,85.5,4.32
Turukhansk,100,RU,1586731549,96,65.82,87.98,35.49,10.4
Husavik,56,IS,1586731550,60,66.04,-17.34,42.8,28.86
Fernández,0,AR,1586731550,53,-27.92,-63.89,70.47,8.1
Waddān,0,LY,1586731550,29,29.16,16.14,66.94,16.51
Novyy Starodub,31,UA,1586731550,47,48.52,33.17,35.6,4.47
Vostok,0,RU,1586731550,39,46.49,135.88,45.95,2.48
Imeni Poliny Osipenko,60,RU,1586731550,63,52.42,136.49,41.56,1.66
San Quintín,6,MX,1586731550,67,30.48,-115.95,61.9,15.79
Katsuura,75,JP,1586731505,93,35.13,140.3,51.8,25.28
Verkhnevilyuysk,90,RU,1586731551,82,63.45,120.32,34.97,9.64
Port Moresby,40,PG,1586731551,88,-9.44,147.18,80.6,3.36
Arraial do Cabo,82,BR,1586731551,64,-22.97,-42.03,74.17,7.52
Maraã,83,BR,1586731551,94,-1.83,-65.37,76.06,2.24
Tiksi,98,RU,1586731551,96,71.69,128.87,23.38,10.78
Kavieng,98,PG,1586731551,73,-2.57,150.8,83.7,2.91
Pangoa,58,PE,1586731551,75,-12.12,-73.0,71.08,1.3
General Roca,20,AR,1586731551,56,-39.03,-67.58,68.0,6.62
Punta Arenas,40,CL,1586731552,71,-53.15,-70.92,50.0,32.21
Gladstone,19,AU,1586731433,64,-23.85,151.25,75.2,9.17
Grand Gaube,75,MU,1586731552,83,-20.01,57.66,78.01,13.87
Saint-Médard-en-Jalles,77,FR,1586731552,93,44.9,-0.72,60.01,5.82
Micheweni,79,TZ,1586731552,82,-4.97,39.83,81.34,13.38
Oktyabr'skoye,96,RU,1586731552,68,43.06,44.74,32.45,4.16
Kaka,36,TM,1586731552,72,37.35,59.61,52.77,2.64
Cherskiy,97,RU,1586731552,96,68.75,161.3,18.19,7.61
Ancud,75,CL,1586731553,76,-41.87,-73.82,53.6,4.7
Tasiilaq,100,GL,1586731553,92,65.61,-37.64,30.2,33.33
Camopi,98,GF,1586731553,92,3.17,-52.32,74.17,4.0
Shubarshi,34,KZ,1586731553,71,48.59,57.19,37.94,14.41
Yangi Marg`ilon,90,UZ,1586731553,77,40.43,71.72,60.8,4.7
Saint-Philippe,93,RE,1586731553,78,-21.36,55.77,73.4,5.82
Pangnirtung,100,CA,1586731553,92,66.15,-65.71,23.77,7.29
Puerto Carreño,87,CO,1586731554,37,6.19,-67.49,86.61,12.15
Novichikha,100,RU,1586731554,79,52.2,81.39,38.03,6.69
Bucerías,40,MX,1586731505,50,20.75,-105.33,78.8,13.87
Cayenne,75,GF,1586731554,74,4.93,-52.33,80.6,8.05
Lamar,90,US,1586731554,77,33.67,-95.58,77.0,24.16
Alice Town,37,BS,1586731554,81,25.72,-79.3,79.97,23.44
Pitimbu,20,BR,1586731554,88,-7.47,-34.81,78.8,5.82
Juneau,90,US,1586731555,42,58.3,-134.42,48.2,3.36
Tautira,48,PF,1586731555,66,-17.73,-149.15,87.8,6.93
Buin,40,CL,1586731555,59,-33.73,-70.75,66.2,4.7
Dolores,89,AR,1586731555,67,-36.31,-57.68,62.69,7.78
Butaritari,95,KI,1586731555,79,3.07,172.79,83.14,15.73
Derzhavīnsk,0,KZ,1586731555,59,51.1,66.32,41.65,10.2
Olafsvik,100,IS,1586731555,86,64.89,-23.71,42.28,27.31
Charters Towers,0,AU,1586731556,55,-20.1,146.27,81.18,10.4
Cidreira,60,BR,1586731556,78,-30.18,-50.21,66.97,14.92
San Joaquin,14,VE,1586731556,66,10.26,-67.79,75.63,6.58
Walvis Bay,0,NA,1586731556,68,-22.96,14.51,66.2,3.36
Taoudenni,42,ML,1586731556,14,22.68,-3.98,84.9,9.31
Iskateley,0,RU,1586731556,92,67.68,53.15,10.89,4.85
Chui,34,UY,1586731557,83,-33.7,-53.46,63.68,10.07
Naze,75,JP,1586731557,44,28.37,129.48,62.6,19.46
Inhambane,0,MZ,1586731557,83,-23.86,35.38,75.13,11.23
Dauriya,50,RU,1586731557,27,49.93,116.87,51.67,5.79
Airai,44,TL,1586731557,65,-8.93,125.41,68.59,0.63
Russell,20,US,1586731558,65,32.35,-85.2,82.0,6.93
Japura,98,ID,1586731558,97,-0.32,102.35,74.25,3.51
Lázaro Cárdenas,37,MX,1586731559,64,17.96,-102.2,81.77,6.53
Hithadhoo,20,MV,1586731559,69,-0.6,73.08,84.47,8.14
Ribeira Grande,5,PT,1586731559,78,38.52,-28.7,61.74,7.11
Broken Hill,11,AU,1586731559,47,-31.95,141.43,55.4,5.82
Namtsy,0,RU,1586731559,58,62.72,129.67,30.2,8.95
Upernavik,100,GL,1586731560,98,72.79,-56.15,29.53,5.28
Vanimo,100,PG,1586731560,85,-2.67,141.3,79.54,9.46
Ketchikan,1,US,1586731560,46,55.34,-131.65,53.6,12.75
Villa María,100,AR,1586731560,57,-32.41,-63.24,70.0,1.99
São Filipe,23,CV,1586731560,78,14.9,-24.5,73.58,10.87
Sørland,100,NO,1586731560,88,67.67,12.69,33.01,51.58
Port Elizabeth,20,ZA,1586731561,72,-33.92,25.57,60.8,9.17
Lagos,20,NG,1586731454,83,6.58,3.75,84.2,8.05
Coahuayana Viejo,40,MX,1586731561,48,18.73,-103.68,86.0,17.22
Yar-Sale,100,RU,1586731561,98,66.83,70.83,21.54,10.07
Namatanai,92,PG,1586731561,71,-3.67,152.43,83.7,3.31
Sisimiut,70,GL,1586731561,92,66.94,-53.67,32.99,17.9
Alexandria,0,EG,1586731388,67,31.22,29.96,60.8,5.82
Chicama,77,PE,1586731558,68,-7.84,-79.15,75.63,8.03
Melfi,5,IT,1586731562,66,41.0,15.65,53.6,4.7
Esmeralda,0,CU,1586731562,71,21.85,-78.12,78.93,10.85
Torbay,20,CA,1586731562,52,47.67,-52.73,41.0,10.29
Plouzané,100,FR,1586731562,87,48.38,-4.62,53.6,8.05
Kaputa,74,ZM,1586731562,69,-8.47,29.66,66.7,0.87
Shizunai-furukawachō,20,JP,1586731562,62,42.33,142.37,42.69,5.97
Renqiu,0,CN,1586731562,35,38.7,116.09,55.99,4.12
Erenhot,98,CN,1586731562,28,43.65,111.98,47.34,9.95
Savelugu,47,GH,1586731563,41,9.62,-0.83,89.58,6.46
Norman Wells,75,CA,1586731511,40,65.28,-126.83,37.4,8.05
Benjamin Constant,40,BR,1586731563,78,-4.38,-70.03,82.4,0.67
Sept-Îles,75,CA,1586731563,51,50.2,-66.38,39.2,6.93
Codrington,48,AU,1586731563,65,-38.27,141.97,56.5,8.16
Sühbaatar,100,MN,1586731563,57,50.23,106.21,38.01,9.89
Tonk,12,IN,1586731563,29,26.17,75.78,79.99,2.13
Taltal,7,CL,1586731563,76,-25.4,-70.48,61.61,2.77
Te Anau,45,NZ,1586731564,72,-45.42,167.72,42.91,11.27
Nizhyn,99,UA,1586731391,59,51.05,31.89,40.42,9.62
Waipawa,21,NZ,1586731564,59,-41.41,175.52,64.4,23.04
Kolokani,44,ML,1586731564,38,13.57,-8.03,83.68,3.58
Ponta do Sol,75,PT,1586731564,77,32.67,-17.1,62.6,8.05
Gayny,100,RU,1586731564,97,60.31,54.32,27.16,9.71
Albi,69,FR,1586731564,58,43.93,2.15,57.2,27.51
Albstadt,77,DE,1586731565,87,48.22,9.03,53.6,3.36
Campana,66,AR,1586731294,68,-34.17,-58.96,71.01,5.82
Nanortalik,83,GL,1586731565,97,60.14,-45.24,31.75,18.32
Cunha,75,BR,1586731565,68,-23.07,-44.96,69.8,5.82
Ponta Delgada,75,PT,1586731565,72,37.73,-25.67,60.8,10.29
Warragul,96,AU,1586731565,93,-38.17,145.93,55.0,2.46
São José da Coroa Grande,33,BR,1586731565,78,-8.9,-35.15,80.06,8.52
Ayan,89,RU,1586731565,78,56.45,138.17,36.01,10.69
Zyryanovsk,100,KZ,1586731566,56,49.74,84.27,42.89,3.78
Nicoya,75,CR,1586731501,44,10.15,-85.45,93.2,13.87
Shelburne,75,CA,1586731512,50,44.08,-80.2,57.2,11.41
Shaowu,6,CN,1586731566,55,27.34,117.48,54.39,3.89
Mocuba,69,MZ,1586731566,93,-16.84,36.99,68.11,2.98
Bermeo,20,ES,1586731566,100,43.42,-2.72,59.0,3.36
Brae,96,GB,1586731567,59,60.4,-1.35,37.4,21.92
Vilyuysk,72,RU,1586731567,88,63.76,121.62,33.4,10.87
High Level,20,CA,1586731567,30,58.52,-117.14,30.2,2.24
Māngrol,0,IN,1586731567,58,21.12,70.12,79.29,12.86
Assiut,0,EG,1586731567,38,27.18,31.18,60.8,6.93
Celestún,10,MX,1586731567,57,20.87,-90.4,88.99,5.23
Longyearbyen,40,SJ,1586731567,70,78.22,15.64,-4.0,2.24
Coquimbo,90,CL,1586731567,77,-29.95,-71.34,60.8,8.05
Turaif,11,SA,1586731568,50,31.67,38.66,55.4,4.7
Antalaha,56,MG,1586731568,84,-14.9,50.28,77.52,8.63
Puerto Escondido,40,MX,1586731568,74,15.85,-97.07,84.2,11.41
Pevek,49,RU,1586731568,91,69.7,170.31,10.99,11.48
Sorong,14,ID,1586731568,80,-0.88,131.25,82.35,1.9
Kruisfontein,3,ZA,1586731568,80,-34.0,24.73,54.12,7.09
Mount Isa,23,AU,1586731568,35,-20.73,139.5,73.4,12.35
Iqaluit,90,CA,1586731569,79,63.75,-68.51,19.4,19.46
Altay,100,CN,1586731569,35,47.87,88.12,46.74,3.44
Tangjiazhuang,0,CN,1586731569,21,39.73,118.45,60.01,1.99
Mäntsälä,75,FI,1586731569,93,60.66,25.28,43.0,16.11
Bereda,75,ES,1586731569,93,43.27,-7.54,54.0,16.11
Yablonovo,17,RU,1586731569,35,50.85,37.36,39.2,8.95
Bayonet Point,1,US,1586731569,58,28.33,-82.68,93.99,12.75
Kutum,57,SD,1586731569,18,14.2,24.67,63.28,5.39
Omboué,80,GA,1586731569,76,-1.57,9.26,77.07,1.72
Bua Yai,99,TH,1586731570,63,15.59,102.43,73.29,10.67
Barra do Garças,38,BR,1586731570,79,-15.89,-52.26,75.29,0.78
Raja,73,SS,1586731570,42,8.46,25.68,75.06,3.42
Alice Springs,1,AU,1586731542,51,-23.7,133.88,60.8,3.36
Paita,43,PE,1586731570,66,-5.09,-81.11,77.38,17.67
Boulder City,75,US,1586731570,59,35.98,-114.83,73.4,10.29
Caravelas,35,BR,1586731570,85,-17.71,-39.25,77.65,16.04
Akdepe,89,TM,1586731570,70,42.06,59.38,53.6,6.93
Jaciara,3,BR,1586731336,79,-15.97,-54.97,73.45,0.98
Dryden,40,CA,1586731571,79,49.78,-92.75,32.0,8.05
‘Ewa Beach,20,US,1586731391,57,21.32,-158.01,82.4,11.41
Cap Malheureux,75,MU,1586731571,83,-19.98,57.61,78.01,13.87
Teya,4,RU,1586731571,93,60.38,92.63,29.64,2.17
Kenmare,72,IE,1586731571,86,51.88,-9.58,44.96,11.54
Romilly-sur-Seine,36,FR,1586731571,71,48.51,3.73,57.2,4.7
Alofi,77,NU,1586731571,66,-19.06,-169.92,84.2,14.99
Saulkrasti,100,LV,1586731572,71,57.26,24.41,51.8,11.41
San Angelo,40,US,1586731572,24,31.46,-100.44,80.01,17.22
Sitka,75,US,1586731490,32,57.05,-135.33,51.8,3.36
Dalbandin,91,PK,1586731572,19,28.89,64.41,74.07,2.1
Puerto Ayacucho,93,VE,1586731572,47,5.66,-67.62,82.8,5.61
Beidao,100,CN,1586731572,31,34.57,105.89,52.48,2.8
Mehamn,75,NO,1586731572,74,71.04,27.85,30.2,16.11
Frontera,5,MX,1586731573,9,26.93,-101.45,91.0,23.04
Tura,0,IN,1586731570,36,25.52,90.22,69.17,2.53
Tateyama,75,JP,1586731573,93,34.98,139.87,51.8,13.87
Melendugno,5,IT,1586731573,87,40.27,18.34,59.0,7.0
Calderitas,90,MX,1586731533,66,18.55,-88.25,87.8,9.17
Xixiang,1,CN,1586731573,99,35.16,112.86,51.01,4.5
Port Hardy,40,CA,1586731573,28,50.7,-127.42,55.4,4.7
Beringovskiy,100,RU,1586731574,95,63.05,179.32,18.25,8.32
Kaitangata,88,NZ,1586731574,66,-46.28,169.85,48.99,1.99
Sweetwater,75,US,1586731574,74,25.76,-80.37,84.99,14.99
Goma,100,CD,1586731574,50,-1.68,29.22,63.81,1.48
Pacific Grove,90,US,1586731574,87,36.62,-121.92,63.0,9.17
Kiryat Gat,0,IL,1586731327,87,31.61,34.76,57.99,2.24
Port-Gentil,77,GA,1586731574,73,-0.72,8.78,79.84,2.8
Porbandar,0,IN,1586731574,63,21.64,69.61,79.29,15.32
Mossamedes,21,AO,1586731575,74,-15.2,12.15,76.17,2.93
Saldanha,0,ZA,1586731575,81,-33.01,17.94,53.6,3.36
Yulara,0,AU,1586731575,45,-25.24,130.99,66.2,5.82
Conceição do Araguaia,83,BR,1586731575,86,-8.26,-49.26,75.07,2.01
Pizarro,60,CO,1586731575,84,4.95,-77.37,79.95,4.32
San Patricio,40,MX,1586731575,79,19.22,-104.7,84.2,11.41
Esperance,90,AU,1586731575,100,-33.87,121.9,62.6,6.31
Nabire,86,ID,1586731575,65,-3.37,135.48,83.77,2.62
Ichinoseki,93,JP,1586731575,73,38.92,141.13,46.45,14.03
Rødbyhavn,100,DK,1586731576,68,54.65,11.35,52.0,5.01
Caucaia,20,BR,1586731552,78,-3.74,-38.65,84.0,5.82
Lüderitz,7,NA,1586731576,100,-26.65,15.16,60.8,10.29
Nouakchott,53,MR,1586731439,69,18.09,-15.98,75.2,16.11
Westlock,1,CA,1586731576,62,54.15,-113.87,28.99,14.99
Baoshan,5,CN,1586731576,38,46.56,131.42,54.59,3.65
Morro Bay,90,US,1586731299,76,35.37,-120.85,59.0,8.05
Honiara,20,SB,1586731576,74,-9.43,159.95,86.0,6.93
Hue,100,VN,1586731577,86,16.47,107.6,69.55,3.83
Puntarenas,75,CR,1586731291,78,9.98,-84.84,75.99,10.29
Broome,90,US,1586731291,30,42.25,-75.83,62.6,13.87
San Francisco,75,US,1586731126,72,37.77,-122.42,73.99,6.93
Tahe,78,CN,1586731577,56,52.33,124.73,41.36,8.9
Regeneração,100,BR,1586731577,84,-6.24,-42.69,76.62,3.04
Aswān,7,EG,1586731577,32,24.09,32.91,63.66,10.13
Dimona,0,IL,1586731578,59,31.07,35.03,52.99,3.15
Havre-St-Pierre,1,CA,1586731578,64,50.23,-63.6,35.6,13.87
Salalah,20,OM,1586731578,69,17.02,54.09,82.4,10.29
Agirish,100,RU,1586731578,90,61.92,63.02,32.86,4.54
Maiduguri,43,NG,1586731578,25,11.85,13.16,79.66,9.01
Ikwiriri,100,TZ,1586731578,97,-7.96,38.97,73.94,2.3
Avera,90,US,1586731579,100,33.19,-82.53,75.2,13.87
Yumen,49,CN,1586731579,18,40.28,97.2,50.74,7.4
Kenai,90,US,1586731579,74,60.55,-151.26,41.0,14.99
Amahai,92,ID,1586731579,73,-3.33,128.92,83.28,2.89
Medina del Campo,48,ES,1586731579,93,41.31,-4.91,55.99,6.93
Praia,20,CV,1586731579,64,14.92,-23.51,75.2,11.41
Narsaq,98,GL,1586731580,93,60.92,-46.05,37.4,4.7
Meulaboh,96,ID,1586731580,81,4.14,96.13,79.32,4.34
Vrangel',0,RU,1586731580,54,42.73,133.08,45.99,7.83
Riyadh,55,SA,1586731422,28,24.69,46.72,71.6,6.93
Bezhetsk,99,RU,1586731580,84,57.79,36.7,35.15,12.46
Mayo,1,US,1586731580,55,38.89,-76.51,71.01,14.99
Anadyr,40,RU,1586731580,84,64.75,177.48,3.2,13.42
Uppsala County,99,SE,1586731581,93,60.0,17.75,39.99,8.05
Linjiang,0,CN,1586731581,34,41.81,126.91,52.52,3.04
Prado,25,BR,1586731581,87,-17.34,-39.22,77.05,13.89
Lydenburg,0,ZA,1586731581,72,-25.1,30.46,66.0,3.91
San Jose,40,US,1586731445,55,37.34,-121.89,72.0,3.36
Gambēla,74,ET,1586731581,67,8.25,34.58,76.01,3.85
Kalmar,99,SE,1586731581,65,56.66,16.36,46.99,19.46
Dunedin,87,NZ,1586731581,66,-45.87,170.5,48.99,1.99
Mountain Home,1,US,1586731302,14,43.13,-115.69,53.6,20.8
North Bend,1,US,1586731582,58,43.41,-124.22,66.99,20.8
Mayumba,93,GA,1586731582,85,-3.43,10.66,79.02,4.79
Grindavik,90,IS,1586731582,100,63.84,-22.43,42.8,19.46
Mana,78,GF,1586731582,79,5.66,-53.78,77.16,7.96
Padang,100,ID,1586731582,77,-0.95,100.35,77.56,3.8
Departamento de Maldonado,54,UY,1586731582,77,-34.67,-54.92,66.2,2.24
Kédougou,53,SN,1586731582,37,12.56,-12.17,88.59,2.75
Esim,4,GH,1586731567,86,4.87,-2.24,80.74,6.69
Khromtau,18,KZ,1586731583,72,50.25,58.43,34.29,12.86
Fuerte Olimpo,0,PY,1586731584,49,-21.04,-57.87,75.31,3.47
Bandarbeyla,22,SO,1586731584,74,9.49,50.81,80.1,6.85
Malinao,1,PH,1586731584,53,7.59,124.69,77.13,0.74
Evensk,57,RU,1586731584,87,61.95,159.23,15.66,1.66
Chul'man,53,RU,1586731584,78,56.85,124.91,27.57,8.79
East London,0,ZA,1586731585,65,-33.02,27.91,64.85,12.24
Portree,11,GB,1586731585,72,57.41,-6.19,41.0,7.0
Port Blair,92,IN,1586731318,74,11.67,92.75,81.73,4.65
Eskişehir,0,TR,1586731521,74,39.78,30.52,35.6,5.82
Kysyl-Syr,62,RU,1586731585,92,63.9,122.76,32.31,9.55
Kiunga,100,PG,1586731585,97,-6.12,141.29,74.19,3.69
Talas,0,TR,1586731585,64,38.69,35.55,37.4,3.36
Shingū,87,JP,1586731578,76,33.73,135.98,55.47,14.67
Mogok,4,MM,1586731586,41,22.92,96.5,65.43,1.95
Wodonga,90,AU,1586731586,100,-36.12,146.88,50.0,2.98
Los Llanos de Aridane,20,ES,1586731586,68,28.66,-17.92,66.2,12.75
Port Macquarie,0,AU,1586731366,71,-31.43,152.92,61.0,5.82
College,75,US,1586731586,31,64.86,-147.8,46.4,1.43
São Félix do Xingu,44,BR,1586731586,88,-6.64,-51.99,71.83,1.7
Mersing,93,MY,1586731586,94,2.43,103.84,78.8,3.36
Noumea,78,NC,1586731535,88,-22.28,166.46,79.0,2.24
Ailigandí,100,PA,1586731587,87,9.23,-78.02,80.4,7.7
Dwārka,0,IN,1586731587,74,22.24,68.97,79.9,15.57
Verkhnyaya Inta,100,RU,1586731587,94,65.98,60.31,18.61,5.57
Griffith,90,US,1586731292,82,41.53,-87.42,61.0,12.75
Yerbogachën,16,RU,1586731587,83,61.28,108.01,32.65,3.78
Bahía Blanca,100,AR,1586731587,84,-38.72,-62.27,60.06,2.1
Susanville,1,US,1586731587,21,40.42,-120.65,60.01,4.7
Sobolevo,64,RU,1586731588,66,54.43,31.9,38.88,12.62
Marystown,1,CA,1586731384,94,47.17,-55.15,32.47,10.25
Houma,90,US,1586731496,78,29.6,-90.72,82.4,21.92
Muroto-misakicho,20,JP,1586731588,61,33.28,134.15,48.2,24.16
Marzuq,61,YE,1586731588,52,14.4,46.47,71.56,4.38
Petra,0,JO,1586731588,44,30.32,35.48,49.39,2.73
San Rafael,100,AR,1586731588,55,-34.62,-68.33,61.2,3.76
Strezhevoy,84,RU,1586731589,64,60.73,77.59,39.2,8.95
Verkhnetulomskiy,40,RU,1586731589,74,68.61,31.8,30.2,15.66
Guadalupe y Calvo,0,MX,1586731589,12,26.1,-106.97,59.5,9.15
Northam,96,GB,1586731589,80,51.03,-4.22,57.0,1.01
Praia,20,CV,1586731589,64,14.92,-23.51,75.2,11.41
Laramie,90,US,1586731389,62,41.31,-105.59,23.0,11.41
Vestmannaeyjar,100,IS,1586731589,88,63.44,-20.27,44.28,22.97
La Ronge,75,CA,1586731589,52,55.1,-105.28,17.6,14.99
Alpena,90,US,1586731590,75,45.06,-83.43,46.4,13.87
Belle Fourche,97,US,1586731590,73,44.67,-103.85,26.01,16.11
Fort Nelson,20,CA,1586731590,27,58.81,-122.7,41.0,4.7
Ulladulla,100,AU,1586731590,67,-35.35,150.47,59.0,9.17
Batamshinskiy,12,KZ,1586731590,80,50.56,58.27,30.2,8.95
Mangochi,47,MW,1586731590,71,-14.48,35.26,69.55,1.32
Teknāf,0,BD,1586731590,82,20.86,92.31,72.72,1.1
Tucumcari,1,US,1586731590,34,35.17,-103.72,51.8,19.46
San Matías,34,BO,1586731591,69,-16.37,-58.4,79.29,3.83
Nyurba,92,RU,1586731591,80,63.28,118.33,35.49,8.97
Pahrump,20,US,1586731591,21,36.21,-115.98,75.0,5.82
Chabahar,99,IR,1586731591,79,25.29,60.64,76.95,5.46
Udachny,90,RU,1586731591,90,66.42,112.4,32.0,6.71
Huangzhai,2,CN,1586731591,55,38.08,112.66,33.8,2.24
Mount Gambier,21,AU,1586731591,93,-37.83,140.77,46.4,5.21
Cabo San Lucas,5,MX,1586731515,56,22.89,-109.91,75.2,5.82
Mahon,98,ES,1586731592,82,39.89,4.27,60.8,9.17
Ludvika,99,SE,1586731592,81,60.15,15.19,37.0,3.0
Aklavik,20,CA,1586731326,96,68.22,-135.01,32.0,5.82
Puerto Quijarro,11,BO,1586731592,67,-17.78,-57.77,77.31,1.19
Clyde River,90,CA,1586731592,85,70.47,-68.59,10.4,25.28
Dunhua,0,CN,1586731592,35,43.37,128.24,50.67,3.36
Shanhecun,0,CN,1586731592,35,44.7,127.2,54.01,5.82
Prainha,100,BR,1586731592,95,-1.8,-53.48,76.57,1.66
Lagoa,3,PT,1586731593,83,39.05,-27.98,61.11,9.01
Santa Cruz de la Sierra,0,BO,1586731439,45,-17.8,-63.17,84.2,11.41
Port Lincoln,48,AU,1586731593,54,-34.73,135.87,63.23,9.53
Geraldton,75,AU,1586731593,83,-28.77,114.6,71.6,6.93
Makīnsk,2,KZ,1586731593,68,52.63,70.42,36.73,7.2
Klaksvík,93,FO,1586731594,83,62.23,-6.59,32.0,9.17
Sandpoint,90,US,1586731552,30,48.28,-116.55,46.99,6.93
Calama,0,CL,1586731594,16,-22.47,-68.93,68.0,19.46
Oussouye,40,SN,1586731594,88,12.48,-16.55,75.2,6.93
Sabang,78,ID,1586731594,75,5.89,95.32,82.71,9.66
Vila Velha,90,BR,1586731328,69,-20.33,-40.29,75.2,12.75
Carnarvon,1,AU,1586731594,100,-24.87,113.63,75.2,14.99
Paphos,0,CY,1586731594,76,34.77,32.42,57.2,9.17
Ulaanbaatar,87,MN,1586731561,41,47.91,106.88,24.8,2.24
Bjerkvik,100,NO,1586731595,92,68.56,17.52,30.99,35.57
Zhuangyuan,0,CN,1586731595,56,37.3,120.83,53.01,10.33
Kathmandu,75,NP,1586731499,88,27.72,85.32,62.6,3.36
Olkhovka,98,RU,1586731595,76,53.21,60.61,36.88,10.04
Kudahuvadhoo,49,MV,1586731595,67,2.67,72.89,83.43,2.51
Viranşehir,0,TR,1586731595,39,37.24,39.76,48.24,7.74
Weatherford,40,US,1586731595,26,32.76,-97.8,82.4,19.46
Gejiu,99,CN,1586731596,57,23.31,103.16,48.11,2.86
Potosí,0,BO,1586731596,13,-19.58,-65.75,47.68,5.7
Bambanglipuro,14,ID,1586731596,78,-7.95,110.28,78.46,3.53
Huarmey,74,PE,1586731596,76,-10.07,-78.15,73.96,9.13
Zomin,100,UZ,1586731596,77,39.96,68.4,52.68,3.09
Saint-Augustin,7,CA,1586731596,93,51.23,-58.65,29.08,11.61
Keti Bandar,10,PK,1586731596,75,24.14,67.45,77.09,10.83
Fort Walton Beach,90,US,1586731597,94,30.41,-86.62,79.0,4.7
Natal,66,BR,1586731597,83,-5.79,-35.21,80.6,6.93
Boyabat,83,TR,1586731597,63,41.47,34.77,39.16,2.13
Basco,87,PH,1586731597,71,20.45,121.97,69.46,22.79
Lata,75,PT,1586731597,87,40.16,-8.33,59.0,5.82
Richards Bay,29,ZA,1586731597,82,-28.78,32.04,76.26,15.3
Khandyga,60,RU,1586731597,95,62.67,135.6,27.21,3.11
Kloulklubed,75,PW,1586731598,88,7.04,134.26,80.6,5.82
Kahului,20,US,1586731589,65,20.89,-156.47,78.8,12.75
Ayorou,37,NE,1586731598,13,14.73,0.92,83.84,4.81
Makat,15,KZ,1586731598,63,47.65,53.35,40.12,21.39
Luwuk,2,ID,1586731598,62,-0.95,122.79,83.37,1.01
Aquiraz,20,BR,1586731587,78,-3.9,-38.39,84.0,5.82
Governador Valadares,26,BR,1586731538,87,-18.85,-41.95,71.71,4.54
Amudat,77,UG,1586731599,51,1.95,34.95,70.9,0.45
Buraidah,40,SA,1586731574,40,26.33,43.98,69.8,19.46
Bonavista,5,CA,1586731599,72,48.65,-53.11,37.99,10.0
Provideniya,90,RU,1586731599,80,64.38,-173.3,30.2,11.18
Pottstown,1,US,1586731599,48,40.25,-75.65,66.99,10.29
Diveyevo,0,RU,1586731599,87,55.04,43.24,29.25,6.55
Ati,74,TD,1586731599,12,13.22,18.34,85.15,17.31
Bentiu,55,SS,1586731599,30,9.23,29.83,81.19,1.1
La Asuncion,21,VE,1586731600,66,11.03,-63.86,84.2,21.92
Kashgar,91,CN,1586731600,11,39.45,75.98,64.4,8.95
Yinzhu,0,CN,1586731600,80,35.88,119.98,46.0,2.24
Skibbereen,20,IE,1586731600,75,51.55,-9.27,46.4,21.92
Embu,40,BR,1586731600,77,-23.65,-46.85,72.0,11.41
Rio Grande,40,BR,1586731600,85,-32.03,-52.1,64.99,1.01
Faanui,72,PF,1586731600,68,-16.48,-151.75,83.57,9.48
Rafsanjān,83,IR,1586731601,40,30.41,55.99,59.36,7.85
Laas,98,IT,1586731601,69,46.62,10.7,51.01,2.24
Ağdam,100,AZ,1586731601,73,39.99,46.93,43.23,5.46
Kifrī,69,IQ,1586731601,49,34.7,44.97,61.34,2.8
Tallahassee,90,US,1586731478,78,30.44,-84.28,82.4,19.46
Arman',100,RU,1586731602,94,59.7,150.17,22.37,4.34
Gorontalo,1,ID,1586731602,57,0.54,123.06,81.28,2.24
Zwedru,75,LR,1586731602,90,6.07,-8.13,74.75,2.68
Turmalina,53,BR,1586731602,78,-17.29,-42.73,68.43,4.83
Egvekinot,23,RU,1586731602,86,66.32,-179.17,22.91,1.54
Khovd,81,MN,1586731602,35,48.01,91.64,40.39,3.13
Mapiripán,91,CO,1586731602,71,2.89,-72.13,80.31,3.31
Le Mars,90,US,1586731603,100,42.79,-96.17,30.2,19.46
Portland,20,US,1586731024,22,45.52,-122.68,66.99,14.99
Ambilobe,68,MG,1586731603,81,-13.2,49.05,75.16,6.02
Emerald,10,AU,1586731603,35,-23.53,148.17,71.01,10.29
Lorengau,40,PG,1586731603,70,-2.02,147.27,84.76,3.13
Maumere,87,ID,1586731603,76,-8.62,122.21,81.0,2.93
Banjarmasin,20,ID,1586731433,100,-3.32,114.59,77.0,2.33
Beloha,0,MG,1586731603,71,-25.17,45.05,73.22,5.17
Acurenam,61,GQ,1586731603,83,1.03,10.65,67.91,0.67
Tomatlán,70,MX,1586731604,33,19.93,-105.25,83.41,11.9
Poum,96,NC,1586731604,71,-20.23,164.02,79.63,4.16
Iquique,26,CL,1586731604,53,-20.22,-70.14,73.4,18.34
Paiján,74,PE,1586731604,72,-7.73,-79.3,74.5,10.54
Palmaner,0,IN,1586731604,50,13.2,78.75,70.57,2.08
Djibouti,20,DJ,1586731604,74,11.5,42.5,84.2,8.79
San Juan,85,AR,1586731604,41,-31.54,-68.54,68.67,14.41
Acapulco de Juárez,40,MX,1586731396,74,16.86,-99.89,84.2,6.93
Luganville,40,VU,1586731605,66,-15.53,167.17,84.2,1.12
Soavinandriana,64,MG,1586731605,64,-19.17,46.73,56.12,4.72
Sola,68,VU,1586731605,88,-13.88,167.55,82.4,14.9
Doctor Arroyo,25,MX,1586731605,8,23.67,-100.18,82.35,17.52
Birjand,75,IR,1586731605,93,32.87,59.22,53.6,7.67
Kamenka,0,RU,1586731606,68,51.32,42.77,30.99,8.99
Nome,90,US,1586731606,99,64.5,-165.41,32.0,14.99
Hualmay,39,PE,1586731606,77,-11.1,-77.61,72.86,7.92
Madarounfa,25,NE,1586731403,14,13.31,7.16,80.19,9.62
Sur,59,OM,1586731606,46,22.57,59.53,80.55,13.04
Paracuru,20,BR,1586731606,78,-3.41,-39.03,84.0,5.82
Vieux-Habitants,75,GP,1586731607,65,16.06,-61.77,82.4,12.75
Skjervøy,100,NO,1586731607,92,70.03,20.97,32.47,16.51
Itarema,100,BR,1586731607,88,-2.92,-39.92,79.3,6.93
Mashivka,57,UA,1586731607,62,49.44,34.87,39.11,6.11
Saint Anthony,90,US,1586731607,86,45.02,-93.22,33.01,16.11
Ganzhou,6,CN,1586731607,55,28.82,115.43,58.41,4.0
São João da Barra,84,BR,1586731418,74,-21.64,-41.05,73.02,8.21
Tamiahua,94,MX,1586731505,76,21.27,-97.45,84.15,12.21
Dātāganj,2,IN,1586731608,25,28.03,79.4,78.66,4.9
Margate,81,GB,1586731608,82,51.38,1.39,57.0,12.75
Bilibino,1,RU,1586731608,86,68.05,166.44,12.94,2.8
Radstadt,75,AT,1586731608,62,47.38,13.45,55.99,6.93
Ardmore,1,US,1586731336,54,34.17,-97.14,69.8,16.11
Yambio,100,SS,1586731608,77,4.57,28.4,69.55,3.22
Port Hedland,90,AU,1586731609,83,-20.32,118.57,78.8,6.93
Nishifukuma,75,JP,1586731609,75,33.77,130.47,48.0,28.86
Sistranda,75,NO,1586731609,79,63.73,8.83,36.0,39.15
Bogorodskoye,91,RU,1586731609,77,56.55,37.88,34.43,10.07
Bay Roberts,20,CA,1586731559,52,47.6,-53.26,41.0,10.29
Shache,32,CN,1586731609,21,38.42,77.24,54.82,2.57
Oruzgan,94,AF,1586731609,41,32.83,66.0,53.58,4.25
Praia da Vitória,75,PT,1586731610,77,38.73,-27.07,60.8,11.65
Bolshaya Dzhalga,7,RU,1586731610,75,45.97,42.7,35.1,8.99
Innisfail,0,AU,1586731610,72,-17.53,146.03,77.0,1.99
Coyhaique,40,CL,1586731610,76,-45.58,-72.07,51.8,3.36
Usinsk,18,RU,1586731610,93,65.99,57.53,15.06,7.31
Ust-Nera,93,RU,1586731610,86,64.57,143.2,26.83,2.15
Ponferrada,43,ES,1586731610,99,42.55,-6.6,53.01,4.65
Mbamba,25,NG,1586731611,15,9.98,13.1,77.68,6.02
Coria,4,ES,1586731611,87,39.99,-6.54,55.99,1.99
Pringsewu,62,ID,1586731611,86,-5.36,104.97,76.5,1.86
Saint-Joseph,97,RE,1586731611,78,-21.37,55.62,73.99,5.82
Yantzaza,90,EC,1586731611,94,-3.83,-78.76,69.8,9.17
Abhā,20,SA,1586731324,82,18.22,42.51,62.6,4.7
Ambon City,98,ID,1586731611,72,-3.7,128.18,82.98,3.24
Banda Aceh,83,ID,1586731612,79,5.56,95.32,80.1,9.26
Tiarei,21,PF,1586731612,66,-17.53,-149.33,87.8,6.93
Sigulda,100,LV,1586731612,72,57.15,24.86,51.8,11.41
Quatre Cocos,75,MU,1586731612,83,-20.21,57.76,78.01,13.87
Hofn,84,IS,1586731612,83,64.25,-15.21,35.33,17.92
Liepāja,98,LV,1586731612,81,56.54,21.04,48.2,14.99
Abu Dhabi,99,AE,1586731410,39,24.47,54.37,84.2,3.36
Ust-Maya,98,RU,1586731612,92,60.42,134.53,28.51,9.46
Matara,15,LK,1586731612,89,5.95,80.54,76.48,4.09
Bondo,100,CD,1586731613,85,3.81,23.69,70.48,2.13
Develi,0,TR,1586731613,64,38.39,35.49,37.4,3.36
Kariba,49,ZW,1586731613,54,-16.52,28.8,70.11,3.98
Talnakh,100,RU,1586731613,78,69.49,88.4,17.6,6.71
Henties Bay,0,NA,1586731613,86,-22.12,14.28,64.0,1.99
Caçapava do Sul,0,BR,1586731614,75,-30.51,-53.49,56.52,6.89
Hohhot,92,CN,1586731614,23,40.81,111.65,32.0,6.71
Sampit,85,ID,1586731614,95,-2.53,112.95,77.14,2.01
Okha,12,RU,1586731614,94,53.57,142.95,30.16,1.57
Weihai,0,CN,1586731614,67,37.5,122.11,49.41,11.3
Saint-Pierre,100,RE,1586731614,78,-21.34,55.48,73.99,5.82
Batī,83,ET,1586731614,52,11.18,40.02,68.77,2.82
Iranshahr,100,IR,1586731614,32,27.2,60.68,78.3,1.21
Moa,1,CU,1586731614,79,20.66,-74.94,76.75,11.16
Abonnema,82,NG,1586731615,85,4.71,6.79,79.83,5.26
Bataiporã,12,BR,1586731615,83,-22.3,-53.27,68.61,4.65
Rosa Zarate,92,EC,1586731491,88,0.33,-79.47,76.21,3.78
Vysokogornyy,0,RU,1586731615,53,50.12,139.15,40.64,1.25
Bedēsa,76,ET,1586731615,51,8.9,40.78,64.24,1.52
Āmli,0,IN,1586731615,46,20.28,73.02,77.36,3.29
