,City,Cloudiness,Country,Date,Humidity,Lat,Lng,Max Temp,Wind Speed
0,Mataura,100,NZ,Sun Apr 12 11:55:55 2020,90,-46.19,168.86,46.0,5.99
1,George Town,20,MY,Sun Apr 12 11:55:55 2020,83,5.41,100.34,84.2,5.82
2,Tuatapere,100,NZ,Sun Apr 12 11:55:55 2020,90,-46.13,167.68,46.0,5.99
3,Grindavik,90,IS,Sun Apr 12 11:55:56 2020,100,63.84,-22.43,46.4,20.8
4,Sibolga,100,ID,Sun Apr 12 11:55:56 2020,79,1.74,98.78,78.96,1.66
5,Punta Arenas,40,CL,Sun Apr 12 11:54:17 2020,71,-53.15,-70.92,51.8,24.16
6,Aklavik,75,CA,Sun Apr 12 11:55:56 2020,73,68.22,-135.01,24.8,5.82
7,Kaitangata,95,NZ,Sun Apr 12 11:55:56 2020,86,-46.28,169.85,46.0,1.99
8,Christchurch,8,NZ,Sun Apr 12 11:55:17 2020,55,-43.53,172.63,63.0,11.41
9,Rikitea,30,PF,Sun Apr 12 11:55:57 2020,85,-23.12,-134.97,78.76,17.45
10,Avarua,100,CK,Sun Apr 12 11:55:57 2020,100,-21.21,-159.78,77.0,3.36
11,Ushuaia,75,AR,Sun Apr 12 11:55:57 2020,93,-54.8,-68.3,42.8,23.04
12,Guilin,84,CN,Sun Apr 12 11:55:57 2020,81,25.28,110.29,51.8,2.24
13,Jacareacanga,74,BR,Sun Apr 12 11:55:57 2020,85,-6.22,-57.75,84.09,1.41
14,Mercedes,56,AR,Sun Apr 12 11:55:57 2020,43,-34.65,-59.43,78.01,1.99
15,Māngrol,0,IN,Sun Apr 12 11:55:58 2020,61,21.12,70.12,80.15,11.95
16,Bilma,19,NE,Sun Apr 12 11:55:58 2020,12,18.69,12.92,88.09,8.1
17,Hobart,48,AU,Sun Apr 12 11:52:14 2020,93,-42.88,147.33,46.99,4.83
18,Longyearbyen,40,SJ,Sun Apr 12 11:55:58 2020,64,78.22,15.64,-0.4,3.36
19,Husavik,0,IS,Sun Apr 12 11:55:58 2020,51,66.04,-17.34,35.6,14.99
20,Seymchan,92,RU,Sun Apr 12 11:55:58 2020,91,62.88,152.43,12.81,0.72
21,Uyemskiy,44,RU,Sun Apr 12 11:55:59 2020,31,64.47,40.85,35.6,4.47
22,Tiksi,82,RU,Sun Apr 12 11:55:59 2020,94,71.69,128.87,12.58,10.33
23,Tuktoyaktuk,75,CA,Sun Apr 12 11:55:59 2020,85,69.45,-133.04,14.0,8.05
24,Vaini,20,TO,Sun Apr 12 11:55:59 2020,88,-21.2,-175.2,69.8,4.7
25,Ayan,100,RU,Sun Apr 12 11:55:59 2020,87,56.45,138.17,32.92,6.29
26,Lagoa,0,PT,Sun Apr 12 11:55:59 2020,74,39.05,-27.98,62.31,10.25
27,Mizdah,12,LY,Sun Apr 12 11:56:00 2020,23,31.45,12.98,69.84,12.03
28,Buraidah,33,SA,Sun Apr 12 11:56:00 2020,30,26.33,43.98,80.6,10.29
29,Arlit,0,NE,Sun Apr 12 11:56:00 2020,9,18.74,7.39,94.86,7.47
30,Albany,75,US,Sun Apr 12 11:53:33 2020,30,42.6,-73.97,57.99,14.99
31,Baykit,9,RU,Sun Apr 12 11:56:00 2020,93,61.67,96.37,25.23,0.87
32,Río Gallegos,75,AR,Sun Apr 12 11:56:00 2020,54,-51.62,-69.22,53.6,13.87
33,Mahāsamund,0,IN,Sun Apr 12 11:56:00 2020,13,21.1,82.1,85.69,5.23
34,Cayenne,75,GF,Sun Apr 12 11:56:01 2020,66,4.93,-52.33,86.0,13.87
35,Bandarbeyla,70,SO,Sun Apr 12 11:56:01 2020,76,9.49,50.81,81.34,14.7
36,Lebu,10,CL,Sun Apr 12 11:56:01 2020,51,-37.62,-73.65,57.31,16.35
37,Katsuura,75,JP,Sun Apr 12 11:56:01 2020,93,35.13,140.3,51.8,11.41
38,São Filipe,6,CV,Sun Apr 12 11:56:01 2020,73,14.9,-24.5,75.07,17.25
39,Khatanga,81,RU,Sun Apr 12 11:56:01 2020,92,71.97,102.5,1.76,10.58
40,Chokurdakh,64,RU,Sun Apr 12 11:56:02 2020,91,70.63,147.92,-6.18,9.31
41,Cape Town,20,ZA,Sun Apr 12 11:53:33 2020,59,-33.93,18.42,64.4,8.05
42,Alofi,34,NU,Sun Apr 12 11:56:02 2020,88,-19.06,-169.92,75.2,4.7
43,Gympie,1,AU,Sun Apr 12 11:56:19 2020,82,-26.19,152.66,64.99,2.84
44,Stornoway,64,GB,Sun Apr 12 11:56:19 2020,65,58.21,-6.39,44.6,25.28
45,Treinta y Tres,93,UY,Sun Apr 12 11:56:20 2020,46,-33.23,-54.38,72.84,6.64
46,Baghlan,100,AF,Sun Apr 12 11:56:20 2020,62,36.13,68.71,64.42,3.87
47,Purpe,100,RU,Sun Apr 12 11:56:20 2020,96,64.48,76.69,34.57,11.21
48,Pevek,22,RU,Sun Apr 12 11:56:20 2020,89,69.7,170.31,4.44,11.18
49,Mar del Plata,75,AR,Sun Apr 12 11:54:39 2020,68,-38.0,-57.56,69.8,11.41
50,Vao,27,NC,Sun Apr 12 11:56:20 2020,77,-22.67,167.48,77.18,8.66
51,Kigoma,20,TZ,Sun Apr 12 11:51:37 2020,69,-4.88,29.63,80.6,0.36
52,Rummu,90,EE,Sun Apr 12 11:56:21 2020,87,59.54,24.8,46.0,14.99
53,Te Anau,92,NZ,Sun Apr 12 11:56:21 2020,71,-45.42,167.72,43.39,8.21
54,Quepos,86,CR,Sun Apr 12 11:51:37 2020,48,9.42,-84.17,87.8,11.41
55,Leningradskiy,99,RU,Sun Apr 12 11:56:21 2020,85,69.38,178.42,12.69,2.3
56,Patan,75,NP,Sun Apr 12 11:56:21 2020,72,27.67,85.33,68.0,6.93
57,San Cristobal,40,VE,Sun Apr 12 11:56:21 2020,41,7.77,-72.22,93.2,17.22
58,Geraldton,90,AU,Sun Apr 12 11:56:22 2020,83,-28.77,114.6,73.4,10.29
59,Pisco,0,PE,Sun Apr 12 11:55:10 2020,30,-13.7,-76.22,75.99,10.29
60,Bluff,100,NZ,Sun Apr 12 11:56:22 2020,90,-46.6,168.33,46.0,5.99
61,Ibrā’,20,OM,Sun Apr 12 11:56:22 2020,28,22.69,58.53,81.63,11.83
62,Flinders,45,AU,Sun Apr 12 11:56:22 2020,76,-34.58,150.86,55.99,9.17
63,Iwanai,0,JP,Sun Apr 12 11:56:22 2020,86,42.97,140.51,32.29,4.54
64,Hithadhoo,25,MV,Sun Apr 12 11:56:23 2020,68,-0.6,73.08,85.35,7.38
65,Narsaq,98,GL,Sun Apr 12 11:56:23 2020,42,60.92,-46.05,44.6,20.8
66,Tessalit,35,ML,Sun Apr 12 11:56:23 2020,11,20.2,1.01,97.0,12.06
67,Nikolskoye,90,RU,Sun Apr 12 11:56:23 2020,93,59.7,30.79,39.2,13.42
68,Meulaboh,66,ID,Sun Apr 12 11:56:23 2020,81,4.14,96.13,80.19,2.98
69,Pangnirtung,90,CA,Sun Apr 12 11:56:23 2020,63,66.15,-65.71,28.4,13.87
70,Santa Isabel Rio Negro,97,BR,Sun Apr 12 11:51:49 2020,66,-0.41,-65.02,87.73,0.69
71,Guánica,1,PR,Sun Apr 12 11:56:24 2020,64,17.97,-66.91,87.01,17.22
72,Kolondiéba,51,ML,Sun Apr 12 11:56:24 2020,25,11.09,-6.89,96.15,4.14
73,Hong Kong,59,HK,Sun Apr 12 11:51:25 2020,34,22.29,114.16,66.2,12.75
74,San Patricio,40,MX,Sun Apr 12 11:56:24 2020,78,19.22,-104.7,78.8,5.82
75,Chui,79,UY,Sun Apr 12 11:56:24 2020,55,-33.7,-53.46,69.3,6.26
76,Langsa,94,ID,Sun Apr 12 11:51:52 2020,87,4.47,97.97,76.98,2.73
77,Kapaa,90,US,Sun Apr 12 11:56:25 2020,77,22.08,-159.32,68.0,8.05
78,Dikson,93,RU,Sun Apr 12 11:56:25 2020,97,73.51,80.55,17.17,17.81
79,Portland,20,US,Sun Apr 12 11:46:41 2020,65,45.52,-122.68,54.0,5.82
80,Upernavik,100,GL,Sun Apr 12 11:56:25 2020,94,72.79,-56.15,30.81,6.02
81,Ulladulla,78,AU,Sun Apr 12 11:56:25 2020,76,-35.35,150.47,53.6,9.17
82,Cockburn Town,4,TC,Sun Apr 12 11:56:26 2020,79,21.46,-71.14,80.08,13.8
83,Kamenka,67,RU,Sun Apr 12 11:56:26 2020,49,51.32,42.77,39.0,8.01
84,Shingū,99,JP,Sun Apr 12 11:56:26 2020,83,33.73,135.98,58.33,17.45
85,Bredasdorp,5,ZA,Sun Apr 12 11:56:26 2020,48,-34.53,20.04,64.4,16.11
86,Port Keats,89,AU,Sun Apr 12 11:56:26 2020,76,-14.25,129.55,81.23,1.45
87,Jiwani,91,PK,Sun Apr 12 11:56:26 2020,77,25.05,61.74,78.12,9.8
88,Piaçabuçu,20,BR,Sun Apr 12 11:56:27 2020,69,-10.41,-36.43,85.12,12.1
89,Turan,75,VN,Sun Apr 12 11:54:02 2020,100,16.07,108.22,69.8,1.12
90,Puerto Ayora,75,EC,Sun Apr 12 11:56:27 2020,78,-0.74,-90.35,82.4,10.29
91,Lang Suan,9,TH,Sun Apr 12 11:56:27 2020,85,9.95,99.08,76.5,1.03
92,Røros,75,NO,Sun Apr 12 11:56:27 2020,92,62.57,11.38,30.2,32.21
93,Mon,33,IN,Sun Apr 12 11:56:27 2020,50,26.75,95.1,66.83,1.9
94,Sørland,75,NO,Sun Apr 12 11:56:27 2020,59,67.67,12.69,35.6,21.92
95,Formosa,0,AR,Sun Apr 12 11:56:28 2020,39,-26.18,-58.18,80.6,6.93
96,Ha Tinh,85,VN,Sun Apr 12 11:56:10 2020,76,18.33,105.9,65.1,7.49
97,Benicarló,97,ES,Sun Apr 12 11:56:28 2020,57,40.42,0.43,60.01,4.0
98,East London,99,ZA,Sun Apr 12 11:56:28 2020,64,-33.02,27.91,69.01,22.06
99,Yellowknife,5,CA,Sun Apr 12 11:56:28 2020,60,62.46,-114.35,14.0,6.49
100,Sumbawanga,75,TZ,Sun Apr 12 11:56:29 2020,60,-7.97,31.62,69.8,4.7
101,Bambous Virieux,75,MU,Sun Apr 12 11:56:29 2020,74,-20.34,57.76,79.0,18.34
102,Mossamedes,1,AO,Sun Apr 12 11:56:29 2020,75,-15.2,12.15,76.51,5.99
103,Busselton,87,AU,Sun Apr 12 11:56:29 2020,65,-33.65,115.33,63.0,9.8
104,Sakakah,20,SA,Sun Apr 12 11:52:38 2020,17,29.97,40.21,73.4,6.93
105,Coahuayana Viejo,40,MX,Sun Apr 12 11:56:29 2020,45,18.73,-103.68,82.4,6.26
106,Sosnovka,100,RU,Sun Apr 12 11:56:29 2020,88,56.26,51.28,39.87,11.45
107,Jaisinghnagar,0,IN,Sun Apr 12 11:56:30 2020,17,23.7,81.38,79.99,1.77
108,Phuket,20,TH,Sun Apr 12 11:56:30 2020,88,8.0,98.25,80.6,5.26
109,Hermanus,29,ZA,Sun Apr 12 11:56:31 2020,74,-34.42,19.23,62.01,4.0
110,Saint George,1,US,Sun Apr 12 11:56:31 2020,51,37.1,-113.58,64.99,12.46
111,Zyryanka,100,RU,Sun Apr 12 11:56:31 2020,96,65.75,150.85,21.79,1.34
112,Laramie,90,US,Sun Apr 12 11:53:07 2020,72,41.31,-105.59,21.0,8.05
113,Cham,40,CH,Sun Apr 12 11:56:32 2020,28,47.18,8.46,71.6,5.82
114,Tasiilaq,90,GL,Sun Apr 12 11:56:32 2020,54,65.61,-37.64,30.2,20.8
115,Kiryat Gat,40,IL,Sun Apr 12 11:56:32 2020,68,31.61,34.76,64.4,8.05
116,Acapulco de Juárez,75,MX,Sun Apr 12 11:54:55 2020,69,16.86,-99.89,82.4,4.7
117,Avera,90,US,Sun Apr 12 11:56:32 2020,88,33.19,-82.53,75.2,9.17
118,Waingapu,36,ID,Sun Apr 12 11:56:32 2020,80,-9.66,120.26,78.26,2.55
119,Hammerfest,75,NO,Sun Apr 12 11:53:02 2020,86,70.66,23.68,26.6,16.11
120,Berlevåg,75,NO,Sun Apr 12 11:55:29 2020,73,70.86,29.09,30.2,20.8
121,Kismayo,99,SO,Sun Apr 12 11:56:33 2020,75,-0.36,42.55,84.34,11.99
122,Port Alfred,60,ZA,Sun Apr 12 11:56:33 2020,79,-33.59,26.89,64.99,8.01
123,Dandong,0,CN,Sun Apr 12 11:56:33 2020,60,40.13,124.39,43.83,0.81
124,Broken Hill,85,AU,Sun Apr 12 11:56:33 2020,41,-31.95,141.43,51.8,4.7
125,Vestmannaeyjar,96,IS,Sun Apr 12 11:56:33 2020,79,63.44,-20.27,41.29,20.0
126,Hilo,75,US,Sun Apr 12 11:53:10 2020,73,19.73,-155.09,69.8,4.7
127,Ereymentau,100,KZ,Sun Apr 12 11:56:34 2020,68,51.62,73.1,49.21,8.79
128,Sabha,0,LY,Sun Apr 12 11:56:34 2020,14,27.04,14.43,82.42,6.58
129,Praia,14,CV,Sun Apr 12 11:54:45 2020,48,14.92,-23.51,86.0,19.46
130,Esil,14,KZ,Sun Apr 12 11:56:34 2020,53,51.96,66.4,45.52,8.52
131,Saint Paul Harbor,90,US,Sun Apr 12 11:56:34 2020,86,57.79,-152.41,39.2,13.87
132,Marsá Maţrūḩ,0,EG,Sun Apr 12 11:54:08 2020,64,31.35,27.25,62.31,7.29
133,Jamestown,90,US,Sun Apr 12 11:56:35 2020,57,42.1,-79.24,61.0,8.05
134,Morondava,24,MG,Sun Apr 12 11:56:35 2020,82,-20.28,44.28,78.12,7.61
135,Maple Creek,68,CA,Sun Apr 12 11:56:35 2020,63,49.92,-109.48,26.62,23.33
136,Rawson,0,AR,Sun Apr 12 11:56:35 2020,30,-43.3,-65.1,64.83,5.82
137,Tiarei,20,PF,Sun Apr 12 11:56:35 2020,78,-17.53,-149.33,78.8,2.24
138,Cravo Norte,100,CO,Sun Apr 12 11:56:35 2020,35,6.3,-70.2,96.01,10.56
139,Ocean City,1,US,Sun Apr 12 11:56:36 2020,59,39.28,-74.57,68.0,8.05
140,Port Elizabeth,12,ZA,Sun Apr 12 11:56:36 2020,63,-33.92,25.57,64.4,24.16
141,Luganville,94,VU,Sun Apr 12 11:56:36 2020,79,-15.53,167.17,75.78,3.87
142,Nashville,90,US,Sun Apr 12 11:52:39 2020,87,36.17,-86.78,55.0,10.29
143,Dwārka,0,IN,Sun Apr 12 11:56:36 2020,72,22.24,68.97,80.69,16.93
144,Vila Velha,75,BR,Sun Apr 12 11:56:20 2020,69,-20.33,-40.29,77.0,17.22
145,Otjimbingwe,54,NA,Sun Apr 12 11:56:36 2020,31,-22.35,16.13,80.1,4.81
146,Benalla,100,AU,Sun Apr 12 11:56:37 2020,93,-36.55,145.98,51.01,2.84
147,Keti Bandar,1,PK,Sun Apr 12 11:56:37 2020,70,24.14,67.45,79.16,12.44
148,Chara,32,RU,Sun Apr 12 11:56:37 2020,83,56.91,118.26,20.97,4.7
149,Bengkulu,100,ID,Sun Apr 12 11:56:37 2020,81,-3.8,102.27,79.2,2.82
150,Port Hardy,40,CA,Sun Apr 12 11:56:37 2020,45,50.7,-127.42,42.8,3.36
151,Kavaratti,9,IN,Sun Apr 12 11:56:37 2020,71,10.57,72.64,85.08,8.08
152,Ilulissat,100,GL,Sun Apr 12 11:56:37 2020,69,69.22,-51.1,39.2,20.8
153,Kruisfontein,2,ZA,Sun Apr 12 11:56:38 2020,69,-34.0,24.73,59.76,17.07
154,Tegul'det,0,RU,Sun Apr 12 11:56:38 2020,85,57.31,88.17,34.29,6.13
155,Adrar,30,MR,Sun Apr 12 11:56:38 2020,11,20.5,-10.07,94.23,7.9
156,Lüderitz,11,NA,Sun Apr 12 11:56:38 2020,82,-26.65,15.16,65.14,14.38
157,Dali,23,CN,Sun Apr 12 11:56:38 2020,36,25.7,100.18,51.28,2.08
158,Siverek,0,TR,Sun Apr 12 11:56:38 2020,41,37.76,39.32,57.2,4.7
159,Palmares do Sul,19,BR,Sun Apr 12 11:56:39 2020,56,-30.26,-50.51,73.06,10.56
160,Williamsburg,1,US,Sun Apr 12 11:56:39 2020,53,37.27,-76.71,75.0,10.29
161,Muli,29,MV,Sun Apr 12 11:56:39 2020,69,2.92,73.57,84.42,2.48
162,Saskylakh,75,RU,Sun Apr 12 11:56:39 2020,95,71.92,114.08,17.58,23.51
163,Saint-Pierre,100,RE,Sun Apr 12 11:56:39 2020,83,-21.34,55.48,75.2,6.93
164,Isangel,99,VU,Sun Apr 12 11:56:40 2020,71,-19.55,169.27,77.43,3.87
165,Barão de Melgaço,40,BR,Sun Apr 12 11:56:40 2020,43,-16.19,-55.97,91.4,8.05
166,Bethel,1,US,Sun Apr 12 11:56:40 2020,35,41.37,-73.41,61.0,10.29
167,Constitución,0,CL,Sun Apr 12 11:56:40 2020,48,-35.33,-72.42,61.23,13.78
168,Huai'an,0,CN,Sun Apr 12 11:56:40 2020,64,33.59,119.02,42.01,8.1
169,Oranjemund,32,NA,Sun Apr 12 11:55:06 2020,88,-28.55,16.43,63.95,9.84
170,Clyde River,90,CA,Sun Apr 12 11:56:40 2020,78,70.47,-68.59,10.4,29.97
171,Santa Maria,20,BR,Sun Apr 12 11:56:40 2020,60,-29.68,-53.81,73.4,5.82
172,Rio Grande,75,BR,Sun Apr 12 11:56:41 2020,64,-32.03,-52.1,73.4,9.17
173,La Romana,20,DO,Sun Apr 12 11:52:50 2020,66,18.43,-68.97,84.2,17.22
174,Kavieng,73,PG,Sun Apr 12 11:56:41 2020,72,-2.57,150.8,83.75,3.36
175,Resistencia,0,AR,Sun Apr 12 11:52:17 2020,30,-27.46,-58.98,84.0,11.41
176,Russell,75,US,Sun Apr 12 11:56:41 2020,88,32.35,-85.2,73.99,4.7
177,Kentville,20,CA,Sun Apr 12 11:52:30 2020,33,45.08,-64.5,48.99,25.28
178,Qaanaaq,88,GL,Sun Apr 12 11:56:42 2020,81,77.48,-69.36,16.54,0.78
179,Pauini,98,BR,Sun Apr 12 11:56:42 2020,81,-7.71,-66.98,78.71,7.63
180,Mahébourg,75,MU,Sun Apr 12 11:56:42 2020,74,-20.41,57.7,79.0,18.34
181,Rudnaya Pristan',0,RU,Sun Apr 12 11:56:42 2020,79,44.36,135.81,35.98,6.76
182,Celestún,11,MX,Sun Apr 12 11:56:42 2020,52,20.87,-90.4,90.25,9.37
183,Fort Nelson,20,CA,Sun Apr 12 11:56:42 2020,50,58.81,-122.7,28.4,5.82
184,Yar-Sale,100,RU,Sun Apr 12 11:56:42 2020,97,66.83,70.83,19.72,4.97
185,Ahipara,40,NZ,Sun Apr 12 11:56:42 2020,82,-35.17,173.17,65.16,20.11
186,Oga,92,IT,Sun Apr 12 11:56:43 2020,32,46.46,10.35,55.4,8.05
187,Fengrun,0,CN,Sun Apr 12 11:56:43 2020,34,39.83,118.12,48.99,5.01
188,Moroni,59,KM,Sun Apr 12 11:56:43 2020,78,-11.7,43.26,82.51,15.66
189,Tongzi,100,CN,Sun Apr 12 11:56:43 2020,64,28.78,105.09,63.14,4.88
190,Ponta do Sol,40,PT,Sun Apr 12 11:56:43 2020,68,32.67,-17.1,66.2,12.75
191,Karratha,37,AU,Sun Apr 12 11:56:44 2020,62,-20.74,116.85,81.82,10.22
192,Arman',100,RU,Sun Apr 12 11:56:44 2020,96,59.7,150.17,17.28,2.3
193,Kampot,40,KH,Sun Apr 12 11:56:44 2020,83,10.62,104.18,75.2,9.17
194,Nam Dinh,96,VN,Sun Apr 12 11:56:44 2020,65,20.42,106.17,63.46,6.67
195,Castro,23,BR,Sun Apr 12 11:53:30 2020,30,-24.79,-50.01,75.07,3.02
196,Yinchuan,100,CN,Sun Apr 12 11:56:44 2020,1,38.47,106.27,52.0,7.0
197,Norman Wells,20,CA,Sun Apr 12 11:56:44 2020,62,65.28,-126.83,19.4,13.87
198,Thompson,40,CA,Sun Apr 12 11:56:45 2020,51,55.74,-97.86,10.4,9.17
199,Butaritari,100,KI,Sun Apr 12 11:56:45 2020,78,3.07,172.79,82.98,14.29
200,El Alto,50,PE,Sun Apr 12 11:56:45 2020,62,-4.27,-81.21,77.65,10.63
201,Cabo San Lucas,5,MX,Sun Apr 12 11:56:45 2020,72,22.89,-109.91,73.0,4.7
202,Ngunguru,61,NZ,Sun Apr 12 11:56:45 2020,96,-35.62,174.5,62.01,1.01
203,Storforshei,100,NO,Sun Apr 12 11:56:45 2020,81,66.4,14.52,33.01,1.99
204,Conceição do Castelo,89,BR,Sun Apr 12 11:54:55 2020,75,-20.37,-41.24,67.23,4.43
205,Boguchany,0,RU,Sun Apr 12 11:56:46 2020,93,58.38,97.45,30.63,2.62
206,Lorengau,26,PG,Sun Apr 12 11:56:46 2020,74,-2.02,147.27,82.6,2.77
207,Goderich,99,CA,Sun Apr 12 11:56:46 2020,71,43.75,-81.72,55.99,11.45
208,Vila Franca do Campo,75,PT,Sun Apr 12 11:56:46 2020,77,37.72,-25.43,62.6,9.17
209,Khowst,93,AF,Sun Apr 12 11:56:46 2020,40,33.38,69.88,66.45,3.58
210,Iqaluit,90,CA,Sun Apr 12 11:56:46 2020,79,63.75,-68.51,26.6,5.82
211,Huoqiu,0,CN,Sun Apr 12 11:56:47 2020,50,32.34,116.27,47.05,3.09
212,Comodoro Rivadavia,53,AR,Sun Apr 12 11:56:47 2020,48,-45.87,-67.5,60.8,12.75
213,Nizhniy Kuranakh,67,RU,Sun Apr 12 11:56:47 2020,94,58.84,125.49,26.26,3.76
214,Barcelos,75,PT,Sun Apr 12 11:56:47 2020,82,41.54,-8.62,64.0,5.82
215,Kaeo,54,NZ,Sun Apr 12 11:56:47 2020,94,-35.1,173.78,62.01,3.0
216,Dukat,4,RU,Sun Apr 12 11:56:47 2020,85,62.55,155.55,0.36,2.06
217,Ufimskiy,83,RU,Sun Apr 12 11:56:48 2020,83,56.71,58.05,37.89,6.22
218,Pacific Grove,90,US,Sun Apr 12 11:56:48 2020,82,36.62,-121.92,55.4,3.36
219,Edwardsville,90,US,Sun Apr 12 11:53:44 2020,100,38.81,-89.95,63.0,18.34
220,Nizwá,30,OM,Sun Apr 12 11:56:48 2020,21,22.93,57.53,83.79,4.61
221,Lavrentiya,100,RU,Sun Apr 12 11:56:48 2020,97,65.58,-171.0,23.92,1.36
222,Paysandu,31,UY,Sun Apr 12 11:56:48 2020,42,-32.32,-58.08,78.01,5.01
223,Kitakami,88,JP,Sun Apr 12 11:56:48 2020,82,39.28,141.12,40.93,3.22
224,Mandera,97,KE,Sun Apr 12 11:56:49 2020,9,3.94,41.87,89.01,1.01
225,Olinda,40,BR,Sun Apr 12 11:56:49 2020,62,-8.01,-34.86,87.8,9.17
226,Kiunga,100,PG,Sun Apr 12 11:56:49 2020,97,-6.12,141.29,74.62,1.5
227,Arraial do Cabo,75,BR,Sun Apr 12 11:56:39 2020,65,-22.97,-42.03,77.0,5.82
228,Caldwell,1,US,Sun Apr 12 11:56:49 2020,39,43.66,-116.69,46.99,12.75
229,Nyzhnya Duvanka,64,UA,Sun Apr 12 11:56:49 2020,64,49.58,38.17,40.39,7.56
230,Mezhdurechensk,8,RU,Sun Apr 12 11:56:49 2020,78,53.69,88.06,34.54,2.44
231,Tabou,78,CI,Sun Apr 12 11:56:49 2020,78,4.42,-7.35,82.45,6.93
232,Karasjok,75,NO,Sun Apr 12 11:56:50 2020,79,69.47,25.51,28.4,26.4
233,Takāb,96,IR,Sun Apr 12 11:56:50 2020,42,36.4,47.11,43.07,4.74
234,Moerai,27,PF,Sun Apr 12 11:56:50 2020,80,-22.43,-151.33,81.36,6.4
235,Cherskiy,94,RU,Sun Apr 12 11:56:50 2020,94,68.75,161.3,12.65,10.8
236,Barrow,90,US,Sun Apr 12 11:56:50 2020,85,71.29,-156.79,21.2,5.82
237,Ostrovnoy,100,RU,Sun Apr 12 11:56:50 2020,92,68.05,39.51,26.67,18.84
238,Sioux Lookout,90,CA,Sun Apr 12 11:56:50 2020,63,50.1,-91.92,26.6,8.05
239,Biak,4,ID,Sun Apr 12 11:56:51 2020,66,-0.91,122.88,79.43,3.4
240,Atuona,5,PF,Sun Apr 12 11:56:51 2020,71,-9.8,-139.03,81.66,4.52
241,Ust-Nera,100,RU,Sun Apr 12 11:56:51 2020,88,64.57,143.2,21.15,2.19
242,Klatovy,20,CZ,Sun Apr 12 11:56:51 2020,21,49.4,13.3,72.0,6.93
243,Airai,98,TL,Sun Apr 12 11:56:51 2020,76,-8.93,125.41,62.82,0.54
244,Gobabis,80,NA,Sun Apr 12 11:56:51 2020,23,-22.45,18.97,76.28,2.35
245,Coquimbo,90,CL,Sun Apr 12 11:56:51 2020,82,-29.95,-71.34,60.8,3.36
246,San Quintín,91,MX,Sun Apr 12 11:56:52 2020,63,30.48,-115.95,62.42,12.55
247,Kununurra,74,AU,Sun Apr 12 11:56:52 2020,88,-15.77,128.73,78.8,2.73
248,Hervey Bay,3,AU,Sun Apr 12 11:56:52 2020,88,-25.3,152.85,68.0,6.93
249,Palembang,99,ID,Sun Apr 12 11:56:52 2020,95,-2.92,104.75,76.24,2.1
250,Henties Bay,0,NA,Sun Apr 12 11:56:52 2020,78,-22.12,14.28,68.0,5.99
251,Esim,33,GH,Sun Apr 12 11:56:53 2020,77,4.87,-2.24,83.25,7.0
252,Ōme,90,JP,Sun Apr 12 11:56:53 2020,93,35.78,139.24,51.01,9.17
253,Puerto Carreño,99,CO,Sun Apr 12 11:56:53 2020,34,6.19,-67.49,96.8,5.82
254,Puerto El Triunfo,8,SV,Sun Apr 12 11:56:53 2020,44,13.28,-88.55,93.2,6.93
255,Arkhangelsk,52,RU,Sun Apr 12 11:56:53 2020,31,64.54,40.54,35.6,4.47
256,Homer,90,US,Sun Apr 12 11:56:53 2020,69,59.64,-151.55,39.2,8.05
257,Ussel,96,FR,Sun Apr 12 11:56:54 2020,58,45.55,2.32,54.39,4.81
258,Monrovia,75,LR,Sun Apr 12 11:56:38 2020,74,6.3,-10.8,86.0,11.41
259,Manzhouli,20,CN,Sun Apr 12 11:56:54 2020,32,49.6,117.43,46.13,7.65
260,Nova Olímpia,50,BR,Sun Apr 12 11:56:54 2020,69,-14.8,-57.29,85.8,1.79
261,Carnarvon,6,AU,Sun Apr 12 11:56:54 2020,94,-24.87,113.63,77.0,14.99
262,Guerrero Negro,96,MX,Sun Apr 12 11:56:54 2020,67,27.98,-114.06,62.01,13.89
263,Mezen',4,RU,Sun Apr 12 11:56:55 2020,93,65.85,44.24,23.76,7.65
264,New Norfolk,51,AU,Sun Apr 12 11:56:55 2020,93,-42.78,147.06,46.99,3.74
265,Souillac,75,MU,Sun Apr 12 11:56:55 2020,74,-20.52,57.52,79.0,18.34
266,Carnot,71,CF,Sun Apr 12 11:56:55 2020,73,4.94,15.87,73.94,3.6
267,Faanui,95,PF,Sun Apr 12 11:56:55 2020,70,-16.48,-151.75,82.67,10.69
268,Montes Altos,94,BR,Sun Apr 12 11:56:55 2020,78,-5.83,-47.07,83.37,2.62
269,Solton,41,RU,Sun Apr 12 11:56:55 2020,82,52.84,86.48,34.05,2.08
270,Samarai,84,PG,Sun Apr 12 11:56:55 2020,74,-10.62,150.67,77.56,4.92
271,Iskateley,4,RU,Sun Apr 12 11:56:56 2020,95,67.68,53.15,14.61,5.79
272,Makakilo City,40,US,Sun Apr 12 11:56:56 2020,88,21.35,-158.09,73.4,6.93
273,Hasaki,75,JP,Sun Apr 12 11:56:56 2020,93,35.73,140.83,50.0,17.22
274,Creel,1,MX,Sun Apr 12 11:56:56 2020,16,27.75,-107.63,52.99,9.42
275,Necochea,97,AR,Sun Apr 12 11:56:56 2020,89,-38.55,-58.74,62.01,1.01
276,Marawi,0,PH,Sun Apr 12 11:56:56 2020,69,8.0,124.29,66.52,2.93
277,Severo-Kuril'sk,88,RU,Sun Apr 12 11:56:56 2020,95,50.68,156.12,28.04,5.86
278,Barranco,40,PA,Sun Apr 12 11:56:57 2020,74,9.52,-82.7,86.0,6.93
279,Aromashevo,100,RU,Sun Apr 12 11:56:57 2020,75,56.86,68.64,44.1,8.21
280,Piopio,67,NZ,Sun Apr 12 11:56:57 2020,99,-38.47,175.02,59.0,5.99
281,Lerwick,95,GB,Sun Apr 12 11:56:57 2020,55,60.15,-1.15,39.2,24.16
282,Port Blair,79,IN,Sun Apr 12 11:54:38 2020,71,11.67,92.75,82.99,4.99
283,Margate,80,GB,Sun Apr 12 11:56:57 2020,45,51.38,1.39,70.0,6.93
284,Genhe,0,CN,Sun Apr 12 11:56:58 2020,44,50.78,121.52,39.54,0.25
285,Deputatsky,2,RU,Sun Apr 12 11:56:58 2020,83,69.3,139.9,-6.23,4.23
286,Onguday,1,RU,Sun Apr 12 11:56:58 2020,52,50.75,86.15,37.02,2.44
287,Aripuanã,98,BR,Sun Apr 12 11:56:58 2020,66,-9.17,-60.63,84.87,1.54
288,Acaraú,85,BR,Sun Apr 12 11:55:36 2020,70,-2.89,-40.12,85.62,10.45
289,Teahupoo,20,PF,Sun Apr 12 11:56:58 2020,78,-17.83,-149.27,78.8,2.24
290,Broome,90,US,Sun Apr 12 11:56:58 2020,34,42.25,-75.83,57.99,10.29
291,Biltine,50,TD,Sun Apr 12 11:56:59 2020,11,14.53,20.92,86.4,10.71
292,Provideniya,100,RU,Sun Apr 12 11:56:59 2020,96,64.38,-173.3,24.58,4.18
293,Tautira,20,PF,Sun Apr 12 11:56:59 2020,78,-17.73,-149.15,78.8,2.24
294,Qui Nhon,73,VN,Sun Apr 12 11:55:41 2020,86,13.77,109.23,76.73,9.22
295,Bagé,82,BR,Sun Apr 12 11:56:42 2020,62,-31.33,-54.11,66.99,8.99
296,Saint-Philippe,100,RE,Sun Apr 12 11:56:59 2020,83,-21.36,55.77,75.2,6.93
297,Kuna,1,US,Sun Apr 12 11:53:43 2020,36,43.49,-116.42,46.99,12.75
298,Geilo,8,NO,Sun Apr 12 11:57:00 2020,89,60.53,8.21,30.99,35.99
299,Mounana,75,GA,Sun Apr 12 11:57:00 2020,79,-1.41,13.16,84.2,4.7
300,Itaituba,40,BR,Sun Apr 12 11:57:00 2020,70,-4.28,-55.98,87.8,2.89
301,Bariloche,1,AR,Sun Apr 12 11:57:00 2020,53,-41.15,-71.31,50.0,3.36
302,Port-Cartier,75,CA,Sun Apr 12 11:57:00 2020,59,50.03,-66.87,37.4,10.29
303,Beringovskiy,97,RU,Sun Apr 12 11:57:01 2020,95,63.05,179.32,11.62,8.7
304,Hendaye,60,FR,Sun Apr 12 11:57:01 2020,64,43.37,-1.77,71.6,3.36
305,Riyadh,59,SA,Sun Apr 12 11:52:04 2020,32,24.69,46.72,80.6,6.93
306,Cap Malheureux,75,MU,Sun Apr 12 11:57:01 2020,74,-19.98,57.61,79.0,18.34
307,Ribeira Grande,20,PT,Sun Apr 12 11:57:01 2020,72,38.52,-28.7,66.2,9.17
308,Faya,20,SA,Sun Apr 12 11:57:01 2020,77,18.39,42.45,66.2,9.17
309,Honiara,40,SB,Sun Apr 12 11:53:42 2020,100,-9.43,159.95,75.2,2.42
310,Pustoshka,93,RU,Sun Apr 12 11:57:02 2020,60,56.34,29.37,42.4,9.62
311,Deming,90,US,Sun Apr 12 11:57:02 2020,53,32.27,-107.76,54.0,23.04
312,Sambava,37,MG,Sun Apr 12 11:57:02 2020,88,-14.27,50.17,76.21,7.72
313,San Miguel de Cozumel,75,MX,Sun Apr 12 11:57:02 2020,62,20.51,-86.95,87.8,19.46
314,Verkhoshizhem'ye,100,RU,Sun Apr 12 11:57:02 2020,94,58.01,49.1,28.18,12.66
315,Pilar,40,BR,Sun Apr 12 11:57:02 2020,62,-9.6,-35.96,87.8,11.41
316,Manaure,78,CO,Sun Apr 12 11:57:03 2020,46,11.78,-72.44,93.2,17.22
317,Beisfjord,90,NO,Sun Apr 12 11:57:03 2020,86,68.38,17.6,30.2,32.21
318,Mezhova,0,UA,Sun Apr 12 11:57:03 2020,57,48.25,36.73,40.89,3.62
319,Daru,89,PG,Sun Apr 12 11:57:03 2020,86,-9.08,143.21,79.0,7.47
320,Chicama,40,PE,Sun Apr 12 11:57:03 2020,83,-7.84,-79.15,69.8,13.87
321,Hays,1,US,Sun Apr 12 11:57:04 2020,44,30.05,-98.03,82.0,16.11
322,Manzanillo,4,CU,Sun Apr 12 11:56:58 2020,24,20.34,-77.12,97.18,5.66
323,San Roque,75,ES,Sun Apr 12 11:57:04 2020,87,36.21,-5.38,60.8,11.41
324,Tura,5,IN,Sun Apr 12 11:57:04 2020,27,25.52,90.22,73.98,2.13
325,Victoria Point,9,AU,Sun Apr 12 11:57:04 2020,72,-27.58,153.3,63.0,6.93
326,La Ronge,75,CA,Sun Apr 12 11:57:05 2020,66,55.1,-105.28,12.2,13.87
327,Calvinia,23,ZA,Sun Apr 12 11:57:05 2020,54,-31.47,19.78,55.89,4.03
328,Ciudad Bolivar,99,VE,Sun Apr 12 11:57:05 2020,23,8.12,-63.55,99.99,11.52
329,Bonthe,94,SL,Sun Apr 12 11:57:05 2020,70,7.53,-12.51,85.17,12.59
330,Bathsheba,99,BB,Sun Apr 12 11:57:05 2020,69,13.22,-59.52,80.42,12.77
331,Santiago de las Vegas,20,CU,Sun Apr 12 11:57:05 2020,49,22.97,-82.39,91.4,12.75
332,Kalawit,0,PH,Sun Apr 12 11:57:05 2020,81,8.07,122.52,74.66,1.14
333,Myrtle Beach,75,US,Sun Apr 12 11:57:05 2020,68,33.69,-78.89,75.2,10.29
334,Padang,100,ID,Sun Apr 12 11:57:06 2020,73,-0.95,100.35,78.12,3.58
335,Lagoa Nova,38,BR,Sun Apr 12 11:57:06 2020,35,-6.1,-36.48,86.81,8.57
336,Touros,40,BR,Sun Apr 12 11:57:06 2020,62,-5.2,-35.46,87.8,11.41
337,Nyimba,72,ZM,Sun Apr 12 11:57:06 2020,63,-14.56,30.81,70.63,1.92
338,Sarankhola,0,BD,Sun Apr 12 11:57:06 2020,87,22.31,89.79,78.19,8.01
339,High Level,5,CA,Sun Apr 12 11:57:06 2020,61,58.52,-117.14,17.6,6.93
340,Nome,90,US,Sun Apr 12 11:57:07 2020,92,64.5,-165.41,30.2,11.41
341,Lufilufi,90,WS,Sun Apr 12 11:57:07 2020,94,-13.87,-171.6,77.0,10.09
342,Kumul,18,CN,Sun Apr 12 11:57:07 2020,18,42.8,93.45,58.78,2.62
343,Praia da Vitória,75,PT,Sun Apr 12 11:57:07 2020,72,38.73,-27.07,64.4,12.21
344,Qasigiannguit,100,GL,Sun Apr 12 11:57:07 2020,69,68.82,-51.19,39.2,20.8
345,Kutum,90,SD,Sun Apr 12 11:57:07 2020,12,14.2,24.67,75.4,13.13
346,Paamiut,89,GL,Sun Apr 12 11:57:07 2020,89,61.99,-49.67,34.59,31.12
347,Nicoya,20,CR,Sun Apr 12 11:57:08 2020,46,10.15,-85.45,93.2,11.41
348,Luján,75,AR,Sun Apr 12 11:57:08 2020,47,-34.57,-59.1,78.01,9.17
349,Saldanha,0,ZA,Sun Apr 12 11:57:08 2020,55,-33.01,17.94,66.2,9.17
350,Onverwacht,40,SR,Sun Apr 12 11:57:08 2020,59,5.58,-55.18,90.0,13.87
351,Talnakh,59,RU,Sun Apr 12 11:57:08 2020,85,69.49,88.4,14.0,4.47
352,Salinópolis,81,BR,Sun Apr 12 11:57:08 2020,78,-0.61,-47.36,83.16,14.38
353,Paita,44,PE,Sun Apr 12 11:57:08 2020,52,-5.09,-81.11,82.62,13.65
354,Grand-Santi,87,GF,Sun Apr 12 11:57:09 2020,60,4.25,-54.38,85.95,5.95
355,Galveston,90,US,Sun Apr 12 11:57:09 2020,88,29.37,-94.97,87.01,14.99
356,Dauriya,39,RU,Sun Apr 12 11:57:09 2020,33,49.93,116.87,45.45,5.21
357,Torbay,40,CA,Sun Apr 12 11:53:00 2020,56,47.67,-52.73,46.0,18.34
358,Raja,59,SS,Sun Apr 12 11:57:09 2020,17,8.46,25.68,85.42,1.16
359,Mikkeli,90,FI,Sun Apr 12 11:57:09 2020,93,61.69,27.27,37.4,10.29
360,Kasempa,87,ZM,Sun Apr 12 11:57:09 2020,65,-13.46,25.83,65.73,4.85
361,Twentynine Palms,1,US,Sun Apr 12 11:57:10 2020,51,34.14,-116.05,66.99,11.41
362,Akureyri,16,IS,Sun Apr 12 11:57:10 2020,51,65.68,-18.09,35.6,14.99
363,Pyn U Lwin,20,MM,Sun Apr 12 11:57:10 2020,39,22.03,96.47,82.4,2.24
364,Salinas,90,US,Sun Apr 12 11:57:10 2020,100,36.68,-121.66,55.4,4.7
365,Bodden Town,20,KY,Sun Apr 12 11:57:11 2020,70,19.28,-81.25,87.8,13.87
366,Evensk,96,RU,Sun Apr 12 11:57:11 2020,89,61.95,159.23,8.02,3.74
367,Itarema,84,BR,Sun Apr 12 11:57:11 2020,69,-2.92,-39.92,85.35,11.48
368,Sept-Îles,75,CA,Sun Apr 12 11:56:01 2020,59,50.2,-66.38,37.4,10.29
369,Charlestown,8,AU,Sun Apr 12 11:57:11 2020,93,-32.95,151.67,53.01,2.24
370,Kangaatsiaq,100,GL,Sun Apr 12 11:57:11 2020,97,68.31,-53.46,34.56,10.69
371,Nyborg,90,DK,Sun Apr 12 11:57:11 2020,74,55.31,10.79,60.8,12.75
372,Balikpapan,76,ID,Sun Apr 12 11:57:12 2020,88,-1.27,116.83,76.86,3.71
373,Dakar,29,SN,Sun Apr 12 11:57:12 2020,78,14.69,-17.44,86.0,9.17
374,Litovko,17,RU,Sun Apr 12 11:57:12 2020,69,49.24,135.17,38.1,1.25
375,Juegang,6,CN,Sun Apr 12 11:57:12 2020,75,32.32,121.19,46.71,11.54
376,Alice Springs,21,AU,Sun Apr 12 11:57:12 2020,42,-23.7,133.88,62.6,5.82
377,Maltahöhe,52,NA,Sun Apr 12 11:57:12 2020,18,-24.83,16.98,75.38,15.41
378,Cidreira,20,BR,Sun Apr 12 11:57:13 2020,64,-30.18,-50.21,70.7,10.29
379,Dondo,40,MZ,Sun Apr 12 11:57:13 2020,83,-19.61,34.74,77.0,5.82
380,Hoi An,75,VN,Sun Apr 12 11:57:13 2020,100,15.88,108.33,69.8,1.12
381,Bo Phloi,98,TH,Sun Apr 12 11:57:13 2020,63,14.32,99.52,84.29,4.14
382,Tilichiki,1,RU,Sun Apr 12 11:57:13 2020,87,60.47,166.1,1.44,6.82
383,Bauchi,95,NG,Sun Apr 12 11:57:13 2020,11,10.5,10.0,85.55,3.27
384,Serenje,69,ZM,Sun Apr 12 11:57:13 2020,65,-13.23,30.24,62.22,4.34
385,Kericho,91,KE,Sun Apr 12 11:57:13 2020,52,-0.37,35.28,59.56,1.61
386,Codajás,89,BR,Sun Apr 12 11:57:14 2020,66,-3.84,-62.06,88.68,1.54
387,Itoman,40,JP,Sun Apr 12 11:57:14 2020,45,26.12,127.67,62.6,20.8
388,Yangi Marg`ilon,100,UZ,Sun Apr 12 11:57:14 2020,63,40.43,71.72,62.6,10.45
389,Hofn,47,IS,Sun Apr 12 11:57:14 2020,87,64.25,-15.21,34.36,12.71
390,Shimoda,90,JP,Sun Apr 12 11:57:14 2020,71,34.67,138.95,53.6,21.92
391,Altay,92,CN,Sun Apr 12 11:57:14 2020,38,47.87,88.12,44.92,6.46
392,Mount Gambier,84,AU,Sun Apr 12 11:57:11 2020,87,-37.83,140.77,50.0,4.5
393,Nebaj,69,GT,Sun Apr 12 11:57:15 2020,45,15.41,-91.15,71.01,3.67
394,Dafeng,97,CN,Sun Apr 12 11:57:15 2020,50,23.45,108.59,59.77,3.87
395,Edremit,0,TR,Sun Apr 12 11:57:15 2020,55,39.6,27.02,50.61,10.2
396,Sterling,75,US,Sun Apr 12 11:57:15 2020,51,39.01,-77.43,66.2,8.05
397,Vaitape,96,PF,Sun Apr 12 11:57:15 2020,70,-16.52,-151.75,83.53,10.65
398,São João da Barra,75,BR,Sun Apr 12 11:57:15 2020,73,-21.64,-41.05,75.2,9.17
399,Calbuco,40,CL,Sun Apr 12 11:57:16 2020,62,-41.77,-73.13,55.4,9.17
400,Gijang,75,KR,Sun Apr 12 11:57:16 2020,75,35.24,129.21,46.4,9.17
401,Olafsvik,87,IS,Sun Apr 12 11:57:16 2020,89,64.89,-23.71,41.45,19.84
402,Sola,93,VU,Sun Apr 12 11:57:16 2020,78,-13.88,167.55,81.68,13.47
403,Hamilton,90,US,Sun Apr 12 11:55:08 2020,63,39.18,-84.53,64.4,13.87
404,Nikel,75,RU,Sun Apr 12 11:57:16 2020,96,69.41,30.22,32.0,28.86
405,Chiredzi,89,ZW,Sun Apr 12 11:57:16 2020,35,-21.05,31.67,76.8,5.88
406,Mathathane,0,BW,Sun Apr 12 11:57:17 2020,24,-22.27,28.75,75.51,1.61
407,Muros,40,ES,Sun Apr 12 11:57:17 2020,82,42.78,-9.06,63.0,11.41
408,Nanortalik,78,GL,Sun Apr 12 11:57:17 2020,86,60.14,-45.24,35.19,20.87
409,Goundam,46,ML,Sun Apr 12 11:57:17 2020,19,16.41,-3.67,97.57,9.37
410,Viedma,64,AR,Sun Apr 12 11:57:17 2020,23,-40.81,-63.0,69.53,5.5
411,Naze,90,JP,Sun Apr 12 11:57:17 2020,55,28.37,129.48,60.8,32.21
412,Kloulklubed,75,PW,Sun Apr 12 11:57:17 2020,94,7.04,134.26,78.8,4.7
413,Assiniboia,98,CA,Sun Apr 12 11:57:18 2020,72,49.63,-105.98,26.78,14.34
414,Hambantota,2,LK,Sun Apr 12 11:57:18 2020,82,6.12,81.12,81.61,11.52
415,Bakel,30,SN,Sun Apr 12 11:57:18 2020,11,14.9,-12.46,105.39,1.52
416,Daitari,16,IN,Sun Apr 12 11:57:18 2020,51,21.1,85.75,76.86,3.02
417,Lesosibirsk,0,RU,Sun Apr 12 11:57:18 2020,91,58.24,92.48,32.77,5.86
418,Esperance,90,AU,Sun Apr 12 11:57:18 2020,100,-33.87,121.9,64.4,3.36
419,Jardim,3,BR,Sun Apr 12 11:57:18 2020,39,-21.48,-56.14,89.91,1.05
420,Shimanovsk,0,RU,Sun Apr 12 11:57:19 2020,65,52.0,127.7,39.67,0.11
421,Kargil,15,IN,Sun Apr 12 11:57:19 2020,20,34.57,76.1,33.24,4.63
422,Egvekinot,91,RU,Sun Apr 12 11:57:19 2020,81,66.32,-179.17,12.45,2.73
423,Mosetse,66,BW,Sun Apr 12 11:57:19 2020,25,-20.75,26.65,78.73,0.85
424,Abu Samrah,11,SY,Sun Apr 12 11:57:19 2020,59,35.3,37.18,57.69,8.52
425,Taoudenni,0,ML,Sun Apr 12 11:53:35 2020,8,22.68,-3.98,101.91,10.11
426,Lompoc,90,US,Sun Apr 12 11:57:20 2020,81,34.64,-120.46,59.0,4.7
427,Berbérati,98,CF,Sun Apr 12 11:57:20 2020,78,4.26,15.79,72.18,1.39
428,Hamcearca,2,RO,Sun Apr 12 11:57:20 2020,30,45.12,28.37,55.4,11.41
429,Utkivka,0,UA,Sun Apr 12 11:57:20 2020,57,49.79,36.08,41.86,5.79
430,Anqiu,0,CN,Sun Apr 12 11:57:20 2020,58,36.43,119.19,43.18,5.03
431,Oxelösund,75,SE,Sun Apr 12 11:57:20 2020,53,58.67,17.1,52.0,31.09
432,Teya,27,RU,Sun Apr 12 11:57:20 2020,94,60.38,92.63,27.5,2.3
433,Saint-Augustin,21,CA,Sun Apr 12 11:57:21 2020,86,51.23,-58.65,34.52,11.07
434,Manbij,0,SY,Sun Apr 12 11:57:21 2020,44,36.53,37.95,59.0,4.7
435,Zhigansk,60,RU,Sun Apr 12 11:57:21 2020,96,66.77,123.37,18.64,14.29
436,Hauterive,93,FR,Sun Apr 12 11:57:21 2020,26,46.09,3.45,71.6,13.87
437,San Andrés,20,CO,Sun Apr 12 11:57:01 2020,84,12.58,-81.7,86.0,12.75
438,Oistins,98,BB,Sun Apr 12 11:55:12 2020,68,13.07,-59.53,80.08,12.39
439,Nhulunbuy,54,AU,Sun Apr 12 11:57:22 2020,94,-12.23,136.77,77.0,3.36
440,Asău,74,RO,Sun Apr 12 11:57:22 2020,27,46.43,26.4,63.0,16.11
441,Usinsk,100,RU,Sun Apr 12 11:57:22 2020,92,65.99,57.53,18.95,4.47
442,Panguna,89,PG,Sun Apr 12 11:57:22 2020,82,-6.32,155.48,70.79,1.66
443,Xiuyan,0,CN,Sun Apr 12 11:57:22 2020,46,40.29,123.27,46.35,4.12
444,La Cruz,0,MX,Sun Apr 12 11:57:22 2020,53,23.92,-106.9,73.99,3.0
445,Palmer,75,US,Sun Apr 12 11:57:23 2020,28,42.16,-72.33,61.0,14.99
446,Beatrice,90,US,Sun Apr 12 11:55:56 2020,100,40.27,-96.75,34.0,34.45
447,Guozhen,40,CN,Sun Apr 12 11:57:23 2020,33,34.37,107.36,50.49,0.65
448,Vitim,58,RU,Sun Apr 12 11:57:23 2020,93,59.45,112.56,27.57,0.51
449,Urdoma,18,RU,Sun Apr 12 11:57:23 2020,94,61.75,48.54,23.76,2.84
450,Monterey,90,US,Sun Apr 12 11:57:23 2020,100,36.25,-121.25,55.4,4.7
451,Al Bardīyah,19,LY,Sun Apr 12 11:57:23 2020,64,31.76,25.09,61.63,7.74
452,Chu,100,KZ,Sun Apr 12 11:57:23 2020,76,43.6,73.76,58.19,3.78
453,Helsinge,100,DK,Sun Apr 12 11:57:24 2020,51,56.02,12.2,60.8,21.92
454,Nouadhibou,43,MR,Sun Apr 12 11:57:24 2020,53,20.93,-17.03,77.0,18.34
455,Yuli,92,NG,Sun Apr 12 11:57:24 2020,12,9.7,10.27,92.8,0.67
456,Barra de Tecoanapa,67,MX,Sun Apr 12 11:57:24 2020,40,16.52,-98.75,90.03,10.33
457,Pangkalanbuun,97,ID,Sun Apr 12 11:57:24 2020,90,-2.68,111.62,77.54,2.35
458,Snåase,75,NO,Sun Apr 12 11:57:24 2020,74,64.25,12.38,37.4,10.29
459,Santa Lucía,20,ES,Sun Apr 12 11:57:24 2020,46,27.91,-15.54,73.4,25.28
460,Akdepe,43,TM,Sun Apr 12 11:57:25 2020,58,42.06,59.38,62.6,6.93
461,Seoul,1,KR,Sun Apr 12 11:57:22 2020,52,37.57,126.98,46.4,3.36
462,Honningsvåg,75,NO,Sun Apr 12 11:57:25 2020,93,70.98,25.97,32.0,17.22
463,Kulhudhuffushi,64,MV,Sun Apr 12 11:57:25 2020,71,6.62,73.07,85.48,9.1
464,Brooklyn Park,90,US,Sun Apr 12 11:55:35 2020,86,45.09,-93.36,32.0,11.41
465,Port Lincoln,10,AU,Sun Apr 12 11:57:25 2020,71,-34.73,135.87,57.88,8.84
466,Gravelbourg,90,CA,Sun Apr 12 11:57:26 2020,70,49.88,-106.55,27.9,16.4
467,Taman',1,RU,Sun Apr 12 11:57:26 2020,33,45.21,36.72,46.4,4.47
468,Cap-aux-Meules,20,CA,Sun Apr 12 11:57:26 2020,56,47.38,-61.86,41.0,14.99
469,Boa Vista,75,BR,Sun Apr 12 11:54:11 2020,43,2.82,-60.67,89.6,13.87
470,Virginia Beach,75,US,Sun Apr 12 11:49:51 2020,40,36.85,-75.98,73.99,11.41
471,Okahandja,91,NA,Sun Apr 12 11:52:57 2020,68,-21.98,16.92,69.8,4.7
472,Fortuna,90,US,Sun Apr 12 11:57:26 2020,87,40.6,-124.16,53.01,8.93
473,Kharp,100,RU,Sun Apr 12 11:57:26 2020,92,66.8,65.81,17.53,3.65
474,Nehe,0,CN,Sun Apr 12 11:57:27 2020,41,48.48,124.83,49.12,4.32
475,Togur,8,RU,Sun Apr 12 11:57:27 2020,92,58.36,82.83,32.56,5.61
476,Progreso,20,MX,Sun Apr 12 11:57:27 2020,44,21.28,-89.67,97.0,20.8
477,Killybegs,40,IE,Sun Apr 12 11:57:27 2020,62,54.63,-8.45,51.8,17.22
478,Ucluelet,5,CA,Sun Apr 12 11:57:27 2020,70,48.93,-125.55,48.99,2.24
479,Champerico,75,GT,Sun Apr 12 11:57:27 2020,62,14.3,-91.92,87.8,6.93
480,Nelson Bay,5,AU,Sun Apr 12 11:57:28 2020,93,-32.72,152.15,53.01,2.24
481,Quatre Cocos,75,MU,Sun Apr 12 11:57:28 2020,74,-20.21,57.76,79.0,18.34
482,Durban,14,ZA,Sun Apr 12 11:53:15 2020,65,-29.86,31.03,78.8,11.41
483,Kirando,73,TZ,Sun Apr 12 11:57:28 2020,58,-7.42,30.6,76.8,2.82
484,Ust'-Koksa,16,RU,Sun Apr 12 11:57:28 2020,48,50.27,85.61,36.88,5.59
485,Magadan,100,RU,Sun Apr 12 11:57:29 2020,96,59.57,150.8,16.54,1.7
486,Gizo Government Station,90,SB,Sun Apr 12 11:57:29 2020,77,-8.1,156.84,81.7,3.98
487,Gritsovskiy,71,RU,Sun Apr 12 11:57:29 2020,70,54.14,38.16,36.88,3.31
488,Rio Negrinho,36,BR,Sun Apr 12 11:57:29 2020,82,-26.25,-49.52,80.01,1.01
489,Matinha,94,BR,Sun Apr 12 11:57:29 2020,88,-3.1,-45.03,82.0,3.89
490,Camacha,40,PT,Sun Apr 12 11:57:29 2020,68,33.08,-16.33,66.2,17.22
491,Northam,100,GB,Sun Apr 12 11:57:29 2020,82,51.03,-4.22,62.01,1.99
492,Mugur-Aksy,0,RU,Sun Apr 12 11:57:30 2020,40,50.35,90.5,29.73,1.83
493,Kroya,93,ID,Sun Apr 12 11:57:30 2020,81,-7.63,109.25,78.85,4.32
494,Kichera,97,RU,Sun Apr 12 11:57:30 2020,76,55.94,110.1,29.91,8.01
495,Caravelas,20,BR,Sun Apr 12 11:57:30 2020,81,-17.71,-39.25,80.08,15.99
496,Bambanglipuro,67,ID,Sun Apr 12 11:57:30 2020,79,-7.95,110.28,78.08,4.63
497,Conner,60,PH,Sun Apr 12 11:57:31 2020,82,17.8,121.33,71.85,3.13
498,Portsmouth,82,GB,Sun Apr 12 11:57:00 2020,30,50.8,-1.09,72.0,10.29
499,Oruzgan,95,AF,Sun Apr 12 11:57:31 2020,35,32.83,66.0,58.57,2.73
500,Yichun,4,CN,Sun Apr 12 11:57:31 2020,56,47.7,128.9,40.46,1.77
501,Katihar,0,IN,Sun Apr 12 11:57:31 2020,23,25.53,87.58,82.2,8.05
502,Aborlan,9,PH,Sun Apr 12 11:57:31 2020,83,9.44,118.55,77.25,3.27
503,Lesnoy,95,RU,Sun Apr 12 11:57:32 2020,81,57.62,63.08,43.34,7.67
504,Oranjestad,40,AW,Sun Apr 12 11:57:32 2020,62,12.52,-70.03,86.0,24.16
505,Salekhard,100,RU,Sun Apr 12 11:57:32 2020,96,66.53,66.6,18.01,6.46
506,Ruteng,86,ID,Sun Apr 12 11:57:32 2020,76,-8.61,120.47,63.79,1.74
507,Hualmay,28,PE,Sun Apr 12 11:57:32 2020,61,-11.1,-77.61,79.93,10.8
508,‘Āhuimanu,90,US,Sun Apr 12 11:57:32 2020,69,21.44,-157.84,73.4,9.17
509,Basoko,100,CD,Sun Apr 12 11:57:33 2020,81,1.24,23.62,72.66,3.31
510,Dera Ghazi Khan,88,PK,Sun Apr 12 11:57:33 2020,22,30.06,70.63,90.7,7.18
511,Labuhan,86,ID,Sun Apr 12 11:57:33 2020,84,-6.88,112.21,77.09,1.12
512,Wuwei,98,CN,Sun Apr 12 11:57:33 2020,20,37.93,102.64,52.0,3.91
513,Ulkan,1,RU,Sun Apr 12 11:57:33 2020,93,57.24,107.32,29.16,4.7
514,Cafarnaum,74,BR,Sun Apr 12 11:57:33 2020,56,-11.69,-41.47,79.97,3.22
515,Shitanjing,98,CN,Sun Apr 12 11:57:33 2020,1,39.23,106.34,52.0,5.99
516,Sauda,68,NO,Sun Apr 12 11:57:34 2020,72,59.65,6.35,41.0,7.0
517,Kasamwa,86,TZ,Sun Apr 12 11:57:34 2020,61,-2.85,32.43,69.69,2.44
518,Sabang,77,ID,Sun Apr 12 11:57:34 2020,75,5.89,95.32,83.05,5.08
519,Kasongo-Lunda,94,CD,Sun Apr 12 11:57:34 2020,78,-6.47,16.82,73.02,0.31
520,Paraguarí,0,PY,Sun Apr 12 11:57:34 2020,28,-25.62,-57.15,86.0,5.82
521,The Pas,75,CA,Sun Apr 12 11:57:34 2020,66,53.83,-101.25,12.2,3.36
522,Tecolutla,5,MX,Sun Apr 12 11:57:34 2020,74,20.48,-97.02,86.0,9.98
523,Bongandanga,100,CD,Sun Apr 12 11:57:35 2020,88,1.5,21.05,70.79,2.06
524,Mago,1,RU,Sun Apr 12 11:57:35 2020,95,53.25,140.18,26.04,1.92
525,Bilibino,53,RU,Sun Apr 12 11:57:35 2020,87,68.05,166.44,-0.24,0.94
526,Huambo,98,AO,Sun Apr 12 11:55:17 2020,57,-12.78,15.74,62.76,2.04
527,Atar,44,MR,Sun Apr 12 11:57:35 2020,11,20.52,-13.05,96.75,13.96
528,Nuuk,75,GL,Sun Apr 12 11:55:47 2020,100,64.18,-51.72,35.6,33.33
529,Unaí,68,BR,Sun Apr 12 11:57:35 2020,55,-16.36,-46.91,83.17,3.29
530,Anito,9,PH,Sun Apr 12 11:57:36 2020,74,12.45,125.29,77.88,3.38
531,Waipawa,75,NZ,Sun Apr 12 11:57:36 2020,82,-41.41,175.52,63.0,36.91
532,Cabedelo,20,BR,Sun Apr 12 11:57:36 2020,59,-6.98,-34.83,89.6,11.41
533,Grand Junction,1,US,Sun Apr 12 11:56:36 2020,17,39.06,-108.55,55.4,20.8
534,Nieves,75,PH,Sun Apr 12 11:57:36 2020,88,15.33,120.95,77.0,6.93
535,Elliot Lake,90,CA,Sun Apr 12 11:57:36 2020,75,46.38,-82.63,41.0,5.82
536,Staryy Nadym,100,RU,Sun Apr 12 11:57:36 2020,98,65.61,72.68,27.28,5.79
537,Ambositra,94,MG,Sun Apr 12 11:57:37 2020,66,-20.52,47.25,61.0,3.4
538,Birjand,40,IR,Sun Apr 12 11:57:37 2020,93,32.87,59.22,55.4,6.93
539,Kailua,90,US,Sun Apr 12 11:57:37 2020,69,21.4,-157.74,73.4,9.17
540,Warrington,40,GB,Sun Apr 12 11:57:37 2020,68,53.39,-2.58,66.0,5.82
541,Turki,51,RU,Sun Apr 12 11:57:37 2020,74,51.99,43.27,34.74,14.16
542,Mawlaik,29,MM,Sun Apr 12 11:57:37 2020,34,23.63,94.42,75.63,2.73
543,Rivera,53,UY,Sun Apr 12 11:57:37 2020,31,-30.91,-55.55,76.8,7.29
544,San-Pédro,43,CI,Sun Apr 12 11:57:38 2020,75,4.75,-6.64,83.52,8.61
545,Poum,67,NC,Sun Apr 12 11:57:38 2020,73,-20.23,164.02,78.84,6.58
546,Knysna,75,ZA,Sun Apr 12 11:57:38 2020,63,-34.04,23.05,62.6,12.75
547,Auki,100,SB,Sun Apr 12 11:57:38 2020,77,-8.77,160.7,81.95,7.07
548,Cooma,91,AU,Sun Apr 12 11:57:38 2020,66,-36.23,149.13,32.0,1.03
549,Shakawe,59,BW,Sun Apr 12 11:57:38 2020,46,-18.37,21.85,72.77,3.44
550,Dunedin,68,NZ,Sun Apr 12 11:57:38 2020,86,-45.87,170.5,46.99,1.99
551,Tucumã,88,BR,Sun Apr 12 11:57:39 2020,85,-0.18,-50.05,82.15,7.92
552,Bogatić,0,RS,Sun Apr 12 11:57:39 2020,22,44.84,19.48,69.8,1.12
553,Khislavichi,83,RU,Sun Apr 12 11:57:39 2020,61,54.19,32.16,41.52,7.74
554,Okhotsk,100,RU,Sun Apr 12 11:57:39 2020,97,59.38,143.3,26.1,4.74
555,Half Moon Bay,90,US,Sun Apr 12 11:57:39 2020,100,37.46,-122.43,57.2,4.7
556,Gerzat,96,FR,Sun Apr 12 11:57:39 2020,26,45.82,3.14,71.6,13.87
557,Gimli,9,CA,Sun Apr 12 11:57:40 2020,57,50.63,-96.99,26.01,8.01
558,Acheng,0,CN,Sun Apr 12 11:57:40 2020,41,45.55,126.98,55.0,4.47
559,Mogadishu,29,SO,Sun Apr 12 11:57:40 2020,74,2.04,45.34,83.7,16.96
560,Vanimo,100,PG,Sun Apr 12 11:57:40 2020,91,-2.67,141.3,77.09,4.36
561,Ixtapa,20,MX,Sun Apr 12 11:57:40 2020,39,20.7,-105.2,78.8,8.05
562,Namtsy,1,RU,Sun Apr 12 11:57:40 2020,92,62.72,129.67,32.0,13.42
563,Belyy,98,RU,Sun Apr 12 11:57:40 2020,64,55.84,32.94,40.66,5.3
564,Lixouri,0,GR,Sun Apr 12 11:57:41 2020,40,38.2,20.43,73.4,6.93
565,Bagan,88,RU,Sun Apr 12 11:57:41 2020,90,54.1,77.66,34.68,12.08
566,Martapura,40,ID,Sun Apr 12 11:57:41 2020,100,-3.42,114.85,78.8,3.36
